@Sonygps/ver5.0/wgs-84/20190203040005.000/
@Sonygpsoption/0/20190203040007.000/20190203040007.453/
$GPGGA,040006.453,3620.6625,N,13838.2958,E,1,0,,,M,,M,,*75
$GPRMC,040006.453,A,3620.6625,N,13838.2958,E,9.31,,030219,,,A*75
$GPGGA,040007.453,3620.6629,N,13838.2987,E,1,0,,,M,,M,,*7A
$GPRMC,040007.453,A,3620.6629,N,13838.2987,E,8.96,,030219,,,A*76
$GPGGA,040008.453,3620.6628,N,13838.3018,E,1,0,,,M,,M,,*7A
$GPRMC,040008.453,A,3620.6628,N,13838.3018,E,8.85,,030219,,,A*74
$GPGGA,040009.454,3620.6625,N,13838.3052,E,1,0,,,M,,M,,*7F
$GPRMC,040009.454,A,3620.6625,N,13838.3052,E,9.10,,030219,,,A*7C
$GPGGA,040010.454,3620.6625,N,13838.3085,E,1,0,,,M,,M,,*7D
$GPRMC,040010.454,A,3620.6625,N,13838.3085,E,9.11,,030219,,,A*7F
$GPGGA,040011.455,3620.6624,N,13838.3118,E,1,0,,,M,,M,,*79
$GPRMC,040011.455,A,3620.6624,N,13838.3118,E,9.16,,030219,,,A*7C
$GPGGA,040012.455,3620.6619,N,13838.3155,E,1,0,,,M,,M,,*7D
$GPRMC,040012.455,A,3620.6619,N,13838.3155,E,9.46,,030219,,,A*7D
$GPGGA,040013.470,3620.6591,N,13838.3214,E,1,0,,,M,,M,,*7E
$GPRMC,040013.470,A,3620.6591,N,13838.3214,E,10.04,,030219,,,A*40
$GPGGA,040015.000,3620.6604,N,13838.3276,E,1,0,,,M,,M,,*70
$GPRMC,040015.000,A,3620.6604,N,13838.3276,E,10.13,,030219,,,A*48
$GPGGA,040016.000,3620.6605,N,13838.3316,E,1,0,,,M,,M,,*75
$GPRMC,040016.000,A,3620.6605,N,13838.3316,E,9.57,,030219,,,A*75
$GPGGA,040017.000,3620.6601,N,13838.3350,E,1,0,,,M,,M,,*72
$GPRMC,040017.000,A,3620.6601,N,13838.3350,E,9.38,,030219,,,A*7B
$GPGGA,040018.000,3620.6598,N,13838.3381,E,1,0,,,M,,M,,*72
$GPRMC,040018.000,A,3620.6598,N,13838.3381,E,9.55,,030219,,,A*70
$GPGGA,040019.000,3620.6596,N,13838.3411,E,1,0,,,M,,M,,*73
$GPRMC,040019.000,A,3620.6596,N,13838.3411,E,9.68,,030219,,,A*7F
$GPGGA,040020.000,3620.6595,N,13838.3444,E,1,0,,,M,,M,,*7A
$GPRMC,040020.000,A,3620.6595,N,13838.3444,E,10.11,,030219,,,A*40
$GPGGA,040021.000,3620.6589,N,13838.3477,E,1,0,,,M,,M,,*76
$GPRMC,040021.000,A,3620.6589,N,13838.3477,E,9.91,,030219,,,A*7C
$GPGGA,040022.000,3620.6583,N,13838.3514,E,1,0,,,M,,M,,*7B
$GPRMC,040022.000,A,3620.6583,N,13838.3514,E,10.18,,030219,,,A*48
$GPGGA,040023.000,3620.6576,N,13838.3553,E,1,0,,,M,,M,,*73
$GPRMC,040023.000,A,3620.6576,N,13838.3553,E,10.92,,030219,,,A*42
$GPGGA,040024.000,3620.6573,N,13838.3593,E,1,0,,,M,,M,,*7D
$GPRMC,040024.000,A,3620.6573,N,13838.3593,E,11.31,,030219,,,A*44
$GPGGA,040025.000,3620.6572,N,13838.3632,E,1,0,,,M,,M,,*75
$GPRMC,040025.000,A,3620.6572,N,13838.3632,E,11.27,,030219,,,A*4B
$GPGGA,040026.000,3620.6570,N,13838.3673,E,1,0,,,M,,M,,*71
$GPRMC,040026.000,A,3620.6570,N,13838.3673,E,11.47,,030219,,,A*49
$GPGGA,040027.000,3620.6567,N,13838.3713,E,1,0,,,M,,M,,*71
$GPRMC,040027.000,A,3620.6567,N,13838.3713,E,11.51,,030219,,,A*4E
$GPGGA,040028.000,3620.6563,N,13838.3752,E,1,0,,,M,,M,,*7F
$GPRMC,040028.000,A,3620.6563,N,13838.3752,E,11.30,,030219,,,A*47
$GPGGA,040029.000,3620.6558,N,13838.3790,E,1,0,,,M,,M,,*78
$GPRMC,040029.000,A,3620.6558,N,13838.3790,E,11.25,,030219,,,A*44
$GPGGA,040030.000,3620.6553,N,13838.3829,E,1,0,,,M,,M,,*76
$GPRMC,040030.000,A,3620.6553,N,13838.3829,E,11.14,,030219,,,A*48
$GPGGA,040031.000,3620.6550,N,13838.3866,E,1,0,,,M,,M,,*7F
$GPRMC,040031.000,A,3620.6550,N,13838.3866,E,10.79,,030219,,,A*4B
$GPGGA,040032.000,3620.6546,N,13838.3901,E,1,0,,,M,,M,,*7B
$GPRMC,040032.000,A,3620.6546,N,13838.3901,E,10.29,,030219,,,A*4A
$GPGGA,040033.000,3620.6541,N,13838.3936,E,1,0,,,M,,M,,*79
$GPRMC,040033.000,A,3620.6541,N,13838.3936,E,9.88,,030219,,,A*7B
$GPGGA,040034.000,3620.6534,N,13838.3970,E,1,0,,,M,,M,,*7E
$GPRMC,040034.000,A,3620.6534,N,13838.3970,E,9.63,,030219,,,A*79
$GPGGA,040035.000,3620.6530,N,13838.4002,E,1,0,,,M,,M,,*70
$GPRMC,040035.000,A,3620.6530,N,13838.4002,E,9.24,,030219,,,A*74
$GPGGA,040036.000,3620.6526,N,13838.4034,E,1,0,,,M,,M,,*71
$GPRMC,040036.000,A,3620.6526,N,13838.4034,E,9.07,,030219,,,A*74
$GPGGA,040037.000,3620.6521,N,13838.4063,E,1,0,,,M,,M,,*75
$GPRMC,040037.000,A,3620.6521,N,13838.4063,E,8.55,,030219,,,A*76
$GPGGA,040038.000,3620.6517,N,13838.4093,E,1,0,,,M,,M,,*70
$GPRMC,040038.000,A,3620.6517,N,13838.4093,E,8.80,,030219,,,A*7B
$GPGGA,040039.000,3620.6515,N,13838.4123,E,1,0,,,M,,M,,*79
$GPRMC,040039.000,A,3620.6515,N,13838.4123,E,9.20,,030219,,,A*79
$GPGGA,040040.000,3620.6516,N,13838.4154,E,1,0,,,M,,M,,*74
$GPRMC,040040.000,A,3620.6516,N,13838.4154,E,9.28,,030219,,,A*7C
$GPGGA,040041.000,3620.6517,N,13838.4186,E,1,0,,,M,,M,,*7B
$GPRMC,040041.000,A,3620.6517,N,13838.4186,E,9.47,,030219,,,A*7A
$GPGGA,040042.000,3620.6516,N,13838.4216,E,1,0,,,M,,M,,*73
$GPRMC,040042.000,A,3620.6516,N,13838.4216,E,8.54,,030219,,,A*71
$GPGGA,040043.000,3620.6512,N,13838.4246,E,1,0,,,M,,M,,*73
$GPRMC,040043.000,A,3620.6512,N,13838.4246,E,8.59,,030219,,,A*7C
$GPGGA,040044.000,3620.6508,N,13838.4276,E,1,0,,,M,,M,,*7C
$GPRMC,040044.000,A,3620.6508,N,13838.4276,E,9.06,,030219,,,A*78
$GPGGA,040045.000,3620.6505,N,13838.4306,E,1,0,,,M,,M,,*76
$GPRMC,040045.000,A,3620.6505,N,13838.4306,E,9.01,,030219,,,A*75
$GPGGA,040046.000,3620.6500,N,13838.4337,E,1,0,,,M,,M,,*72
$GPRMC,040046.000,A,3620.6500,N,13838.4337,E,9.07,,030219,,,A*77
$GPGGA,040047.000,3620.6493,N,13838.4368,E,1,0,,,M,,M,,*72
$GPRMC,040047.000,A,3620.6493,N,13838.4368,E,9.09,,030219,,,A*79
$GPGGA,040048.000,3620.6484,N,13838.4402,E,1,0,,,M,,M,,*70
$GPRMC,040048.000,A,3620.6484,N,13838.4402,E,9.01,,030219,,,A*73
$GPGGA,040049.000,3620.6477,N,13838.4433,E,1,0,,,M,,M,,*7F
$GPRMC,040049.000,A,3620.6477,N,13838.4433,E,8.97,,030219,,,A*72
$GPGGA,040050.000,3620.6471,N,13838.4464,E,1,0,,,M,,M,,*73
$GPRMC,040050.000,A,3620.6471,N,13838.4464,E,8.99,,030219,,,A*70
$GPGGA,040051.000,3620.6465,N,13838.4494,E,1,0,,,M,,M,,*78
$GPRMC,040051.000,A,3620.6465,N,13838.4494,E,8.48,,030219,,,A*77
$GPGGA,040052.000,3620.6459,N,13838.4523,E,1,0,,,M,,M,,*79
$GPRMC,040052.000,A,3620.6459,N,13838.4523,E,8.48,,030219,,,A*76
$GPGGA,040053.000,3620.6455,N,13838.4550,E,1,0,,,M,,M,,*70
$GPRMC,040053.000,A,3620.6455,N,13838.4550,E,7.88,,030219,,,A*7C
$GPGGA,040054.000,3620.6450,N,13838.4576,E,1,0,,,M,,M,,*76
$GPRMC,040054.000,A,3620.6450,N,13838.4576,E,7.48,,030219,,,A*76
$GPGGA,040055.000,3620.6446,N,13838.4603,E,1,0,,,M,,M,,*71
$GPRMC,040055.000,A,3620.6446,N,13838.4603,E,7.82,,030219,,,A*77
$GPGGA,040056.000,3620.6438,N,13838.4635,E,1,0,,,M,,M,,*7E
$GPRMC,040056.000,A,3620.6438,N,13838.4635,E,9.41,,030219,,,A*79
$GPGGA,040057.000,3620.6431,N,13838.4666,E,1,0,,,M,,M,,*70
$GPRMC,040057.000,A,3620.6431,N,13838.4666,E,9.14,,030219,,,A*77
$GPGGA,040058.000,3620.6427,N,13838.4696,E,1,0,,,M,,M,,*77
$GPRMC,040058.000,A,3620.6427,N,13838.4696,E,9.57,,030219,,,A*77
$GPGGA,040059.000,3620.6421,N,13838.4731,E,1,0,,,M,,M,,*7C
$GPRMC,040059.000,A,3620.6421,N,13838.4731,E,10.10,,030219,,,A*47
$GPGGA,040100.000,3620.6415,N,13838.4766,E,1,0,,,M,,M,,*74
$GPRMC,040100.000,A,3620.6415,N,13838.4766,E,10.60,,030219,,,A*48
$GPGGA,040101.000,3620.6409,N,13838.4801,E,1,0,,,M,,M,,*76
$GPRMC,040101.000,A,3620.6409,N,13838.4801,E,10.03,,030219,,,A*4F
$GPGGA,040102.000,3620.6404,N,13838.4834,E,1,0,,,M,,M,,*7E
$GPRMC,040102.000,A,3620.6404,N,13838.4834,E,9.33,,030219,,,A*7C
$GPGGA,040103.000,3620.6401,N,13838.4863,E,1,0,,,M,,M,,*78
$GPRMC,040103.000,A,3620.6401,N,13838.4863,E,8.68,,030219,,,A*75
$GPGGA,040104.000,3620.6394,N,13838.4894,E,1,0,,,M,,M,,*7C
$GPRMC,040104.000,A,3620.6394,N,13838.4894,E,8.48,,030219,,,A*73
$GPGGA,040105.000,3620.6390,N,13838.4926,E,1,0,,,M,,M,,*71
$GPRMC,040105.000,A,3620.6390,N,13838.4926,E,8.55,,030219,,,A*72
$GPGGA,040106.000,3620.6384,N,13838.4956,E,1,0,,,M,,M,,*70
$GPRMC,040106.000,A,3620.6384,N,13838.4956,E,8.29,,030219,,,A*78
$GPGGA,040107.000,3620.6377,N,13838.4985,E,1,0,,,M,,M,,*73
$GPRMC,040107.000,A,3620.6377,N,13838.4985,E,7.79,,030219,,,A*71
$GPGGA,040108.000,3620.6370,N,13838.5010,E,1,0,,,M,,M,,*7F
$GPRMC,040108.000,A,3620.6370,N,13838.5010,E,7.25,,030219,,,A*74
$GPGGA,040109.000,3620.6363,N,13838.5039,E,1,0,,,M,,M,,*77
$GPRMC,040109.000,A,3620.6363,N,13838.5039,E,7.17,,030219,,,A*7D
$GPGGA,040110.000,3620.6360,N,13838.5065,E,1,0,,,M,,M,,*75
$GPRMC,040110.000,A,3620.6360,N,13838.5065,E,7.12,,030219,,,A*7A
$GPGGA,040112.000,3620.6350,N,13838.5119,E,1,0,,,M,,M,,*7E
$GPRMC,040112.000,A,3620.6350,N,13838.5119,E,8.01,,030219,,,A*7C
$GPGGA,040113.000,3620.6346,N,13838.5143,E,1,0,,,M,,M,,*77
$GPRMC,040113.000,A,3620.6346,N,13838.5143,E,7.75,,030219,,,A*79
$GPGGA,040114.000,3620.6343,N,13838.5166,E,1,0,,,M,,M,,*72
$GPRMC,040114.000,A,3620.6343,N,13838.5166,E,7.33,,030219,,,A*7E
$GPGGA,040115.000,3620.6341,N,13838.5189,E,1,0,,,M,,M,,*70
$GPRMC,040115.000,A,3620.6341,N,13838.5189,E,7.16,,030219,,,A*7B
$GPGGA,040116.000,3620.6332,N,13838.5212,E,1,0,,,M,,M,,*76
$GPRMC,040116.000,A,3620.6332,N,13838.5212,E,7.50,,030219,,,A*7F
$GPGGA,040117.000,3620.6319,N,13838.5236,E,1,0,,,M,,M,,*78
$GPRMC,040117.000,A,3620.6319,N,13838.5236,E,7.91,,030219,,,A*7C
$GPGGA,040118.000,3620.6309,N,13838.5265,E,1,0,,,M,,M,,*70
$GPRMC,040118.000,A,3620.6309,N,13838.5265,E,9.10,,030219,,,A*73
$GPGGA,040119.000,3620.6303,N,13838.5298,E,1,0,,,M,,M,,*79
$GPRMC,040119.000,A,3620.6303,N,13838.5298,E,9.88,,030219,,,A*7B
$GPGGA,040120.000,3620.6298,N,13838.5333,E,1,0,,,M,,M,,*70
$GPRMC,040120.000,A,3620.6298,N,13838.5333,E,10.19,,030219,,,A*42
$GPGGA,040122.000,3620.6284,N,13838.5407,E,1,0,,,M,,M,,*7F
$GPRMC,040122.000,A,3620.6284,N,13838.5407,E,10.52,,030219,,,A*42
$GPGGA,040123.000,3620.6278,N,13838.5444,E,1,0,,,M,,M,,*7A
$GPRMC,040123.000,A,3620.6278,N,13838.5444,E,10.73,,030219,,,A*44
$GPGGA,040124.000,3620.6270,N,13838.5483,E,1,0,,,M,,M,,*7E
$GPRMC,040124.000,A,3620.6270,N,13838.5483,E,10.91,,030219,,,A*4C
$GPGGA,040126.000,3620.6257,N,13838.5555,E,1,0,,,M,,M,,*73
$GPRMC,040126.000,A,3620.6257,N,13838.5555,E,10.46,,030219,,,A*4B
$GPGGA,040127.000,3620.6251,N,13838.5589,E,1,0,,,M,,M,,*75
$GPRMC,040127.000,A,3620.6251,N,13838.5589,E,10.02,,030219,,,A*4D
$GPGGA,040128.000,3620.6245,N,13838.5622,E,1,0,,,M,,M,,*7D
$GPRMC,040128.000,A,3620.6245,N,13838.5622,E,9.61,,030219,,,A*78
$GPGGA,040130.000,3620.6233,N,13838.5683,E,1,0,,,M,,M,,*7E
$GPRMC,040130.000,A,3620.6233,N,13838.5683,E,9.00,,030219,,,A*7C
$GPGGA,040131.000,3620.6228,N,13838.5713,E,1,0,,,M,,M,,*7D
$GPRMC,040131.000,A,3620.6228,N,13838.5713,E,8.45,,030219,,,A*7F
$GPGGA,040132.000,3620.6223,N,13838.5744,E,1,0,,,M,,M,,*77
$GPRMC,040132.000,A,3620.6223,N,13838.5744,E,8.21,,030219,,,A*77
$GPGGA,040133.000,3620.6225,N,13838.5785,E,1,0,,,M,,M,,*7D
$GPRMC,040133.000,A,3620.6225,N,13838.5785,E,7.89,,030219,,,A*70
$GPGGA,040134.000,3620.6223,N,13838.5817,E,1,0,,,M,,M,,*78
$GPRMC,040134.000,A,3620.6223,N,13838.5817,E,8.40,,030219,,,A*7F
$GPGGA,040135.000,3620.6221,N,13838.5845,E,1,0,,,M,,M,,*7C
$GPRMC,040135.000,A,3620.6221,N,13838.5845,E,8.79,,030219,,,A*71
$GPGGA,040136.000,3620.6220,N,13838.5879,E,1,0,,,M,,M,,*71
$GPRMC,040136.000,A,3620.6220,N,13838.5879,E,8.84,,030219,,,A*7E
$GPGGA,040138.000,3620.6218,N,13838.5942,E,1,0,,,M,,M,,*7D
$GPRMC,040138.000,A,3620.6218,N,13838.5942,E,8.34,,030219,,,A*79
$GPGGA,040139.000,3620.6217,N,13838.5969,E,1,0,,,M,,M,,*7A
$GPRMC,040139.000,A,3620.6217,N,13838.5969,E,7.83,,030219,,,A*7D
$GPGGA,040140.000,3620.6217,N,13838.5995,E,1,0,,,M,,M,,*77
$GPRMC,040140.000,A,3620.6217,N,13838.5995,E,7.47,,030219,,,A*78
$GPGGA,040141.000,3620.6219,N,13838.6023,E,1,0,,,M,,M,,*7F
$GPRMC,040141.000,A,3620.6219,N,13838.6023,E,7.98,,030219,,,A*72
$GPGGA,040142.000,3620.6221,N,13838.6052,E,1,0,,,M,,M,,*71
$GPRMC,040142.000,A,3620.6221,N,13838.6052,E,8.65,,030219,,,A*71
$GPGGA,040144.000,3620.6229,N,13838.6114,E,1,0,,,M,,M,,*7C
$GPRMC,040144.000,A,3620.6229,N,13838.6114,E,10.05,,030219,,,A*43
$GPGGA,040146.000,3620.6242,N,13838.6183,E,1,0,,,M,,M,,*7D
$GPRMC,040146.000,A,3620.6242,N,13838.6183,E,11.38,,030219,,,A*4D
$GPGGA,040148.000,3620.6258,N,13838.6256,E,1,0,,,M,,M,,*73
$GPRMC,040148.000,A,3620.6258,N,13838.6256,E,11.71,,030219,,,A*4E
$GPGGA,040149.000,3620.6267,N,13838.6293,E,1,0,,,M,,M,,*77
$GPRMC,040149.000,A,3620.6267,N,13838.6293,E,11.65,,030219,,,A*4F
$GPGGA,040150.000,3620.6279,N,13838.6329,E,1,0,,,M,,M,,*70
$GPRMC,040150.000,A,3620.6279,N,13838.6329,E,11.85,,030219,,,A*46
$GPGGA,040151.000,3620.6288,N,13838.6369,E,1,0,,,M,,M,,*7B
$GPRMC,040151.000,A,3620.6288,N,13838.6369,E,12.32,,030219,,,A*42
$GPGGA,040152.000,3620.6297,N,13838.6407,E,1,0,,,M,,M,,*79
$GPRMC,040152.000,A,3620.6297,N,13838.6407,E,12.25,,030219,,,A*46
$GPGGA,040153.000,3620.6306,N,13838.6445,E,1,0,,,M,,M,,*77
$GPRMC,040153.000,A,3620.6306,N,13838.6445,E,11.93,,030219,,,A*46
$GPGGA,040154.000,3620.6318,N,13838.6481,E,1,0,,,M,,M,,*77
$GPRMC,040154.000,A,3620.6318,N,13838.6481,E,11.47,,030219,,,A*4F
$GPGGA,040155.000,3620.6329,N,13838.6517,E,1,0,,,M,,M,,*7A
$GPRMC,040155.000,A,3620.6329,N,13838.6517,E,11.52,,030219,,,A*46
$GPGGA,040156.000,3620.6339,N,13838.6554,E,1,0,,,M,,M,,*7F
$GPRMC,040156.000,A,3620.6339,N,13838.6554,E,11.44,,030219,,,A*44
$GPGGA,040157.000,3620.6349,N,13838.6589,E,1,0,,,M,,M,,*79
$GPRMC,040157.000,A,3620.6349,N,13838.6589,E,11.00,,030219,,,A*42
$GPGGA,040158.000,3620.6359,N,13838.6622,E,1,0,,,M,,M,,*75
$GPRMC,040158.000,A,3620.6359,N,13838.6622,E,10.35,,030219,,,A*49
$GPGGA,040159.000,3620.6370,N,13838.6652,E,1,0,,,M,,M,,*78
$GPRMC,040159.000,A,3620.6370,N,13838.6652,E,10.02,,030219,,,A*40
$GPGGA,040200.000,3620.6380,N,13838.6683,E,1,0,,,M,,M,,*74
$GPRMC,040200.000,A,3620.6380,N,13838.6683,E,9.83,,030219,,,A*7D
$GPGGA,040201.000,3620.6390,N,13838.6713,E,1,0,,,M,,M,,*7C
$GPRMC,040201.000,A,3620.6390,N,13838.6713,E,10.15,,030219,,,A*42
$GPGGA,040202.000,3620.6400,N,13838.6747,E,1,0,,,M,,M,,*70
$GPRMC,040202.000,A,3620.6400,N,13838.6747,E,10.56,,030219,,,A*49
$GPGGA,040203.000,3620.6410,N,13838.6780,E,1,0,,,M,,M,,*7B
$GPRMC,040203.000,A,3620.6410,N,13838.6780,E,10.55,,030219,,,A*41
$GPGGA,040204.000,3620.6416,N,13838.6816,E,1,0,,,M,,M,,*7A
$GPRMC,040204.000,A,3620.6416,N,13838.6816,E,10.89,,030219,,,A*41
$GPGGA,040205.000,3620.6423,N,13838.6851,E,1,0,,,M,,M,,*7E
$GPRMC,040205.000,A,3620.6423,N,13838.6851,E,11.17,,030219,,,A*43
$GPGGA,040206.000,3620.6430,N,13838.6890,E,1,0,,,M,,M,,*72
$GPRMC,040206.000,A,3620.6430,N,13838.6890,E,11.66,,030219,,,A*49
$GPGGA,040207.000,3620.6440,N,13838.6930,E,1,0,,,M,,M,,*7F
$GPRMC,040207.000,A,3620.6440,N,13838.6930,E,11.71,,030219,,,A*42
$GPGGA,040208.000,3620.6452,N,13838.6968,E,1,0,,,M,,M,,*7E
$GPRMC,040208.000,A,3620.6452,N,13838.6968,E,11.77,,030219,,,A*45
$GPGGA,040209.000,3620.6464,N,13838.7007,E,1,0,,,M,,M,,*7B
$GPRMC,040209.000,A,3620.6464,N,13838.7007,E,11.70,,030219,,,A*47
$GPGGA,040210.000,3620.6474,N,13838.7046,E,1,0,,,M,,M,,*77
$GPRMC,040210.000,A,3620.6474,N,13838.7046,E,11.45,,030219,,,A*4D
$GPGGA,040211.000,3620.6483,N,13838.7084,E,1,0,,,M,,M,,*70
$GPRMC,040211.000,A,3620.6483,N,13838.7084,E,11.18,,030219,,,A*42
$GPGGA,040212.000,3620.6492,N,13838.7122,E,1,0,,,M,,M,,*7E
$GPRMC,040212.000,A,3620.6492,N,13838.7122,E,11.34,,030219,,,A*42
$GPGGA,040213.000,3620.6501,N,13838.7158,E,1,0,,,M,,M,,*79
$GPRMC,040213.000,A,3620.6501,N,13838.7158,E,11.00,,030219,,,A*42
$GPGGA,040214.000,3620.6512,N,13838.7197,E,1,0,,,M,,M,,*7F
$GPRMC,040214.000,A,3620.6512,N,13838.7197,E,11.63,,030219,,,A*41
$GPGGA,040215.000,3620.6522,N,13838.7236,E,1,0,,,M,,M,,*75
$GPRMC,040215.000,A,3620.6522,N,13838.7236,E,11.67,,030219,,,A*4F
$GPGGA,040216.000,3620.6534,N,13838.7270,E,1,0,,,M,,M,,*73
$GPRMC,040216.000,A,3620.6534,N,13838.7270,E,10.97,,030219,,,A*47
$GPGGA,040217.000,3620.6541,N,13838.7309,E,1,0,,,M,,M,,*7F
$GPRMC,040217.000,A,3620.6541,N,13838.7309,E,10.92,,030219,,,A*4E
$GPGGA,040218.000,3620.6548,N,13838.7349,E,1,0,,,M,,M,,*7D
$GPRMC,040218.000,A,3620.6548,N,13838.7349,E,11.10,,030219,,,A*47
$GPGGA,040219.000,3620.6557,N,13838.7386,E,1,0,,,M,,M,,*71
$GPRMC,040219.000,A,3620.6557,N,13838.7386,E,11.12,,030219,,,A*49
$GPGGA,040220.000,3620.6566,N,13838.7422,E,1,0,,,M,,M,,*70
$GPRMC,040220.000,A,3620.6566,N,13838.7422,E,10.85,,030219,,,A*47
$GPGGA,040221.000,3620.6574,N,13838.7456,E,1,0,,,M,,M,,*71
$GPRMC,040221.000,A,3620.6574,N,13838.7456,E,10.56,,030219,,,A*48
$GPGGA,040222.000,3620.6583,N,13838.7491,E,1,0,,,M,,M,,*71
$GPRMC,040222.000,A,3620.6583,N,13838.7491,E,10.79,,030219,,,A*45
$GPGGA,040223.000,3620.6592,N,13838.7528,E,1,0,,,M,,M,,*73
$GPRMC,040223.000,A,3620.6592,N,13838.7528,E,10.83,,030219,,,A*42
$GPGGA,040224.000,3620.6602,N,13838.7559,E,1,0,,,M,,M,,*78
$GPRMC,040224.000,A,3620.6602,N,13838.7559,E,10.13,,030219,,,A*40
$GPGGA,040225.000,3620.6614,N,13838.7585,E,1,0,,,M,,M,,*7F
$GPRMC,040225.000,A,3620.6614,N,13838.7585,E,9.42,,030219,,,A*7B
$GPGGA,040226.000,3620.6621,N,13838.7616,E,1,0,,,M,,M,,*73
$GPRMC,040226.000,A,3620.6621,N,13838.7616,E,9.09,,030219,,,A*78
$GPGGA,040227.000,3620.6630,N,13838.7641,E,1,0,,,M,,M,,*70
$GPRMC,040227.000,A,3620.6630,N,13838.7641,E,8.32,,030219,,,A*72
$GPGGA,040228.000,3620.6636,N,13838.7668,E,1,0,,,M,,M,,*72
$GPRMC,040228.000,A,3620.6636,N,13838.7668,E,8.89,,030219,,,A*70
$GPGGA,040229.000,3620.6642,N,13838.7698,E,1,0,,,M,,M,,*7F
$GPRMC,040229.000,A,3620.6642,N,13838.7698,E,8.92,,030219,,,A*77
$GPGGA,040230.000,3620.6649,N,13838.7726,E,1,0,,,M,,M,,*78
$GPRMC,040230.000,A,3620.6649,N,13838.7726,E,8.57,,030219,,,A*79
$GPGGA,040231.000,3620.6656,N,13838.7753,E,1,0,,,M,,M,,*75
$GPRMC,040231.000,A,3620.6656,N,13838.7753,E,7.85,,030219,,,A*74
$GPGGA,040232.000,3620.6661,N,13838.7778,E,1,0,,,M,,M,,*7B
$GPRMC,040232.000,A,3620.6661,N,13838.7778,E,7.41,,030219,,,A*72
$GPGGA,040233.000,3620.6666,N,13838.7803,E,1,0,,,M,,M,,*7E
$GPRMC,040233.000,A,3620.6666,N,13838.7803,E,7.73,,030219,,,A*76
$GPGGA,040234.000,3620.6671,N,13838.7828,E,1,0,,,M,,M,,*76
$GPRMC,040234.000,A,3620.6671,N,13838.7828,E,7.44,,030219,,,A*7A
$GPGGA,040235.000,3620.6672,N,13838.7849,E,1,0,,,M,,M,,*73
$GPRMC,040235.000,A,3620.6672,N,13838.7849,E,7.68,,030219,,,A*71
$GPGGA,040236.000,3620.6677,N,13838.7876,E,1,0,,,M,,M,,*79
$GPRMC,040236.000,A,3620.6677,N,13838.7876,E,8.10,,030219,,,A*7B
$GPGGA,040237.000,3620.6683,N,13838.7904,E,1,0,,,M,,M,,*77
$GPRMC,040237.000,A,3620.6683,N,13838.7904,E,8.50,,030219,,,A*71
$GPGGA,040238.000,3620.6691,N,13838.7932,E,1,0,,,M,,M,,*7E
$GPRMC,040238.000,A,3620.6691,N,13838.7932,E,8.35,,030219,,,A*7B
$GPGGA,040239.000,3620.6699,N,13838.7956,E,1,0,,,M,,M,,*75
$GPRMC,040239.000,A,3620.6699,N,13838.7956,E,7.82,,030219,,,A*73
$GPGGA,040240.000,3620.6705,N,13838.7980,E,1,0,,,M,,M,,*74
$GPRMC,040240.000,A,3620.6705,N,13838.7980,E,7.62,,030219,,,A*7C
$GPGGA,040241.000,3620.6709,N,13838.8005,E,1,0,,,M,,M,,*72
$GPRMC,040241.000,A,3620.6709,N,13838.8005,E,7.60,,030219,,,A*78
$GPGGA,040242.000,3620.6715,N,13838.8030,E,1,0,,,M,,M,,*7A
$GPRMC,040242.000,A,3620.6715,N,13838.8030,E,7.56,,030219,,,A*75
$GPGGA,040243.000,3620.6719,N,13838.8055,E,1,0,,,M,,M,,*74
$GPRMC,040243.000,A,3620.6719,N,13838.8055,E,7.26,,030219,,,A*7C
$GPGGA,040244.000,3620.6722,N,13838.8081,E,1,0,,,M,,M,,*72
$GPRMC,040244.000,A,3620.6722,N,13838.8081,E,6.51,,030219,,,A*7B
$GPGGA,040245.000,3620.6726,N,13838.8105,E,1,0,,,M,,M,,*7A
$GPRMC,040245.000,A,3620.6726,N,13838.8105,E,6.55,,030219,,,A*77
$GPGGA,040246.000,3620.6730,N,13838.8129,E,1,0,,,M,,M,,*70
$GPRMC,040246.000,A,3620.6730,N,13838.8129,E,6.56,,030219,,,A*7E
$GPGGA,040247.000,3620.6733,N,13838.8153,E,1,0,,,M,,M,,*7F
$GPRMC,040247.000,A,3620.6733,N,13838.8153,E,6.62,,030219,,,A*76
$GPGGA,040248.000,3620.6736,N,13838.8179,E,1,0,,,M,,M,,*7D
$GPRMC,040248.000,A,3620.6736,N,13838.8179,E,6.99,,030219,,,A*70
$GPGGA,040249.000,3620.6736,N,13838.8204,E,1,0,,,M,,M,,*75
$GPRMC,040249.000,A,3620.6736,N,13838.8204,E,7.06,,030219,,,A*7F
$GPGGA,040250.000,3620.6734,N,13838.8229,E,1,0,,,M,,M,,*70
$GPRMC,040250.000,A,3620.6734,N,13838.8229,E,6.78,,030219,,,A*72
$GPGGA,040251.000,3620.6734,N,13838.8251,E,1,0,,,M,,M,,*7E
$GPRMC,040251.000,A,3620.6734,N,13838.8251,E,6.75,,030219,,,A*71
$GPGGA,040252.000,3620.6734,N,13838.8275,E,1,0,,,M,,M,,*7B
$GPRMC,040252.000,A,3620.6734,N,13838.8275,E,6.72,,030219,,,A*73
$GPGGA,040253.000,3620.6734,N,13838.8297,E,1,0,,,M,,M,,*76
$GPRMC,040253.000,A,3620.6734,N,13838.8297,E,6.65,,030219,,,A*78
$GPGGA,040254.000,3620.6733,N,13838.8320,E,1,0,,,M,,M,,*7B
$GPRMC,040254.000,A,3620.6733,N,13838.8320,E,6.59,,030219,,,A*7A
$GPGGA,040255.000,3620.6731,N,13838.8341,E,1,0,,,M,,M,,*7F
$GPRMC,040255.000,A,3620.6731,N,13838.8341,E,6.21,,030219,,,A*71
$GPGGA,040256.000,3620.6731,N,13838.8362,E,1,0,,,M,,M,,*7D
$GPRMC,040256.000,A,3620.6731,N,13838.8362,E,6.19,,030219,,,A*78
$GPGGA,040257.000,3620.6732,N,13838.8383,E,1,0,,,M,,M,,*70
$GPRMC,040257.000,A,3620.6732,N,13838.8383,E,5.89,,030219,,,A*7F
$GPGGA,040258.000,3620.6731,N,13838.8403,E,1,0,,,M,,M,,*73
$GPRMC,040258.000,A,3620.6731,N,13838.8403,E,5.84,,030219,,,A*71
$GPGGA,040259.000,3620.6730,N,13838.8425,E,1,0,,,M,,M,,*77
$GPRMC,040259.000,A,3620.6730,N,13838.8425,E,6.37,,030219,,,A*7E
$GPGGA,040300.000,3620.6730,N,13838.8445,E,1,0,,,M,,M,,*7C
$GPRMC,040300.000,A,3620.6730,N,13838.8445,E,6.04,,030219,,,A*75
$GPGGA,040301.000,3620.6729,N,13838.8464,E,1,0,,,M,,M,,*76
$GPRMC,040301.000,A,3620.6729,N,13838.8464,E,5.33,,030219,,,A*78
$GPGGA,040302.000,3620.6730,N,13838.8481,E,1,0,,,M,,M,,*76
$GPRMC,040302.000,A,3620.6730,N,13838.8481,E,5.29,,030219,,,A*73
$GPGGA,040303.000,3620.6728,N,13838.8499,E,1,0,,,M,,M,,*77
$GPRMC,040303.000,A,3620.6728,N,13838.8499,E,5.29,,030219,,,A*72
$GPGGA,040304.000,3620.6727,N,13838.8517,E,1,0,,,M,,M,,*78
$GPRMC,040304.000,A,3620.6727,N,13838.8517,E,5.37,,030219,,,A*72
$GPGGA,040305.000,3620.6726,N,13838.8531,E,1,0,,,M,,M,,*7C
$GPRMC,040305.000,A,3620.6726,N,13838.8531,E,4.68,,030219,,,A*7D
$GPGGA,040306.000,3620.6722,N,13838.8546,E,1,0,,,M,,M,,*7B
$GPRMC,040306.000,A,3620.6722,N,13838.8546,E,4.92,,030219,,,A*7F
$GPGGA,040307.000,3620.6719,N,13838.8563,E,1,0,,,M,,M,,*75
$GPRMC,040307.000,A,3620.6719,N,13838.8563,E,4.94,,030219,,,A*77
$GPGGA,040308.000,3620.6716,N,13838.8583,E,1,0,,,M,,M,,*7B
$GPRMC,040308.000,A,3620.6716,N,13838.8583,E,5.37,,030219,,,A*71
$GPGGA,040309.000,3620.6710,N,13838.8606,E,1,0,,,M,,M,,*72
$GPRMC,040309.000,A,3620.6710,N,13838.8606,E,5.53,,030219,,,A*7A
$GPGGA,040310.000,3620.6710,N,13838.8622,E,1,0,,,M,,M,,*7C
$GPRMC,040310.000,A,3620.6710,N,13838.8622,E,5.46,,030219,,,A*70
$GPGGA,040311.000,3620.6712,N,13838.8641,E,1,0,,,M,,M,,*7A
$GPRMC,040311.000,A,3620.6712,N,13838.8641,E,5.69,,030219,,,A*7B
$GPGGA,040312.000,3620.6712,N,13838.8661,E,1,0,,,M,,M,,*7B
$GPRMC,040312.000,A,3620.6712,N,13838.8661,E,5.29,,030219,,,A*7E
$GPGGA,040313.000,3620.6710,N,13838.8680,E,1,0,,,M,,M,,*77
$GPRMC,040313.000,A,3620.6710,N,13838.8680,E,5.02,,030219,,,A*7B
$GPGGA,040314.000,3620.6709,N,13838.8699,E,1,0,,,M,,M,,*70
$GPRMC,040314.000,A,3620.6709,N,13838.8699,E,5.24,,030219,,,A*78
$GPGGA,040315.000,3620.6708,N,13838.8717,E,1,0,,,M,,M,,*77
$GPRMC,040315.000,A,3620.6708,N,13838.8717,E,5.22,,030219,,,A*79
$GPGGA,040316.000,3620.6706,N,13838.8734,E,1,0,,,M,,M,,*7B
$GPRMC,040316.000,A,3620.6706,N,13838.8734,E,5.20,,030219,,,A*77
$GPGGA,040317.000,3620.6705,N,13838.8751,E,1,0,,,M,,M,,*7A
$GPRMC,040317.000,A,3620.6705,N,13838.8751,E,5.14,,030219,,,A*71
$GPGGA,040318.000,3620.6706,N,13838.8766,E,1,0,,,M,,M,,*72
$GPRMC,040318.000,A,3620.6706,N,13838.8766,E,4.89,,030219,,,A*7C
$GPGGA,040319.000,3620.6707,N,13838.8781,E,1,0,,,M,,M,,*7B
$GPRMC,040319.000,A,3620.6707,N,13838.8781,E,4.97,,030219,,,A*7A
$GPGGA,040320.000,3620.6706,N,13838.8802,E,1,0,,,M,,M,,*74
$GPRMC,040320.000,A,3620.6706,N,13838.8802,E,5.31,,030219,,,A*78
$GPGGA,040321.000,3620.6704,N,13838.8819,E,1,0,,,M,,M,,*7D
$GPRMC,040321.000,A,3620.6704,N,13838.8819,E,4.81,,030219,,,A*7B
$GPGGA,040322.000,3620.6703,N,13838.8839,E,1,0,,,M,,M,,*7B
$GPRMC,040322.000,A,3620.6703,N,13838.8839,E,5.51,,030219,,,A*71
$GPGGA,040323.000,3620.6703,N,13838.8862,E,1,0,,,M,,M,,*74
$GPRMC,040323.000,A,3620.6703,N,13838.8862,E,5.58,,030219,,,A*77
$GPGGA,040324.000,3620.6703,N,13838.8882,E,1,0,,,M,,M,,*7D
$GPRMC,040324.000,A,3620.6703,N,13838.8882,E,5.55,,030219,,,A*73
$GPGGA,040325.000,3620.6704,N,13838.8902,E,1,0,,,M,,M,,*72
$GPRMC,040325.000,A,3620.6704,N,13838.8902,E,6.14,,030219,,,A*7A
$GPGGA,040326.000,3620.6704,N,13838.8925,E,1,0,,,M,,M,,*74
$GPRMC,040326.000,A,3620.6704,N,13838.8925,E,6.17,,030219,,,A*7F
$GPGGA,040327.000,3620.6703,N,13838.8950,E,1,0,,,M,,M,,*70
$GPRMC,040327.000,A,3620.6703,N,13838.8950,E,6.14,,030219,,,A*78
$GPGGA,040328.000,3620.6705,N,13838.8971,E,1,0,,,M,,M,,*7A
$GPRMC,040328.000,A,3620.6705,N,13838.8971,E,5.64,,030219,,,A*76
$GPGGA,040329.000,3620.6705,N,13838.8994,E,1,0,,,M,,M,,*70
$GPRMC,040329.000,A,3620.6705,N,13838.8994,E,5.85,,030219,,,A*73
$GPGGA,040330.000,3620.6705,N,13838.9017,E,1,0,,,M,,M,,*7B
$GPRMC,040330.000,A,3620.6705,N,13838.9017,E,6.39,,030219,,,A*7C
$GPGGA,040331.000,3620.6703,N,13838.9042,E,1,0,,,M,,M,,*7C
$GPRMC,040331.000,A,3620.6703,N,13838.9042,E,6.37,,030219,,,A*75
$GPGGA,040332.000,3620.6701,N,13838.9064,E,1,0,,,M,,M,,*79
$GPRMC,040332.000,A,3620.6701,N,13838.9064,E,5.89,,030219,,,A*76
$GPGGA,040333.000,3620.6700,N,13838.9084,E,1,0,,,M,,M,,*77
$GPRMC,040333.000,A,3620.6700,N,13838.9084,E,5.93,,030219,,,A*73
$GPGGA,040334.000,3620.6698,N,13838.9106,E,1,0,,,M,,M,,*7B
$GPRMC,040334.000,A,3620.6698,N,13838.9106,E,5.75,,030219,,,A*77
$GPGGA,040335.000,3620.6698,N,13838.9126,E,1,0,,,M,,M,,*78
$GPRMC,040335.000,A,3620.6698,N,13838.9126,E,5.57,,030219,,,A*74
$GPGGA,040336.000,3620.6697,N,13838.9145,E,1,0,,,M,,M,,*71
$GPRMC,040336.000,A,3620.6697,N,13838.9145,E,5.33,,030219,,,A*7F
$GPGGA,040337.000,3620.6698,N,13838.9159,E,1,0,,,M,,M,,*72
$GPRMC,040337.000,A,3620.6698,N,13838.9159,E,4.99,,030219,,,A*7D
$GPGGA,040338.000,3620.6695,N,13838.9175,E,1,0,,,M,,M,,*7E
$GPRMC,040338.000,A,3620.6695,N,13838.9175,E,5.02,,030219,,,A*72
$GPGGA,040339.000,3620.6695,N,13838.9189,E,1,0,,,M,,M,,*7C
$GPRMC,040339.000,A,3620.6695,N,13838.9189,E,5.18,,030219,,,A*7B
$GPGGA,040340.000,3620.6695,N,13838.9207,E,1,0,,,M,,M,,*77
$GPRMC,040340.000,A,3620.6695,N,13838.9207,E,5.19,,030219,,,A*71
$GPGGA,040341.000,3620.6693,N,13838.9226,E,1,0,,,M,,M,,*73
$GPRMC,040341.000,A,3620.6693,N,13838.9226,E,5.23,,030219,,,A*7C
$GPGGA,040342.000,3620.6692,N,13838.9248,E,1,0,,,M,,M,,*79
$GPRMC,040342.000,A,3620.6692,N,13838.9248,E,5.18,,030219,,,A*7E
$GPGGA,040343.000,3620.6692,N,13838.9267,E,1,0,,,M,,M,,*75
$GPRMC,040343.000,A,3620.6692,N,13838.9267,E,5.15,,030219,,,A*7F
$GPGGA,040344.000,3620.6693,N,13838.9285,E,1,0,,,M,,M,,*7F
$GPRMC,040344.000,A,3620.6693,N,13838.9285,E,4.89,,030219,,,A*71
$GPGGA,040345.000,3620.6692,N,13838.9305,E,1,0,,,M,,M,,*76
$GPRMC,040345.000,A,3620.6692,N,13838.9305,E,5.11,,030219,,,A*78
$GPGGA,040346.000,3620.6690,N,13838.9327,E,1,0,,,M,,M,,*77
$GPRMC,040346.000,A,3620.6690,N,13838.9327,E,5.06,,030219,,,A*7F
$GPGGA,040347.000,3620.6689,N,13838.9347,E,1,0,,,M,,M,,*78
$GPRMC,040347.000,A,3620.6689,N,13838.9347,E,4.99,,030219,,,A*77
$GPGGA,040348.000,3620.6688,N,13838.9366,E,1,0,,,M,,M,,*75
$GPRMC,040348.000,A,3620.6688,N,13838.9366,E,5.46,,030219,,,A*79
$GPGGA,040349.000,3620.6687,N,13838.9387,E,1,0,,,M,,M,,*74
$GPRMC,040349.000,A,3620.6687,N,13838.9387,E,5.67,,030219,,,A*7B
$GPGGA,040350.000,3620.6687,N,13838.9407,E,1,0,,,M,,M,,*73
$GPRMC,040350.000,A,3620.6687,N,13838.9407,E,5.60,,030219,,,A*7B
$GPGGA,040351.000,3620.6687,N,13838.9428,E,1,0,,,M,,M,,*7F
$GPRMC,040351.000,A,3620.6687,N,13838.9428,E,5.90,,030219,,,A*78
$GPGGA,040352.000,3620.6688,N,13838.9448,E,1,0,,,M,,M,,*75
$GPRMC,040352.000,A,3620.6688,N,13838.9448,E,5.93,,030219,,,A*71
$GPGGA,040353.000,3620.6689,N,13838.9468,E,1,0,,,M,,M,,*77
$GPRMC,040353.000,A,3620.6689,N,13838.9468,E,5.70,,030219,,,A*7E
$GPGGA,040354.000,3620.6690,N,13838.9487,E,1,0,,,M,,M,,*79
$GPRMC,040354.000,A,3620.6690,N,13838.9487,E,5.48,,030219,,,A*7B
$GPGGA,040355.000,3620.6690,N,13838.9507,E,1,0,,,M,,M,,*71
$GPRMC,040355.000,A,3620.6690,N,13838.9507,E,5.65,,030219,,,A*7C
$GPGGA,040356.000,3620.6690,N,13838.9527,E,1,0,,,M,,M,,*70
$GPRMC,040356.000,A,3620.6690,N,13838.9527,E,5.59,,030219,,,A*72
$GPGGA,040357.000,3620.6690,N,13838.9547,E,1,0,,,M,,M,,*77
$GPRMC,040357.000,A,3620.6690,N,13838.9547,E,5.56,,030219,,,A*7A
$GPGGA,040358.000,3620.6691,N,13838.9566,E,1,0,,,M,,M,,*7A
$GPRMC,040358.000,A,3620.6691,N,13838.9566,E,5.59,,030219,,,A*78
$GPGGA,040359.000,3620.6690,N,13838.9586,E,1,0,,,M,,M,,*74
$GPRMC,040359.000,A,3620.6690,N,13838.9586,E,5.53,,030219,,,A*7C
$GPGGA,040400.000,3620.6689,N,13838.9606,E,1,0,,,M,,M,,*7C
$GPRMC,040400.000,A,3620.6689,N,13838.9606,E,5.46,,030219,,,A*70
$GPGGA,040401.000,3620.6689,N,13838.9625,E,1,0,,,M,,M,,*7C
$GPRMC,040401.000,A,3620.6689,N,13838.9625,E,5.44,,030219,,,A*72
$GPGGA,040402.000,3620.6690,N,13838.9642,E,1,0,,,M,,M,,*76
$GPRMC,040402.000,A,3620.6690,N,13838.9642,E,5.39,,030219,,,A*72
$GPGGA,040403.000,3620.6692,N,13838.9658,E,1,0,,,M,,M,,*7E
$GPRMC,040403.000,A,3620.6692,N,13838.9658,E,5.32,,030219,,,A*71
$GPGGA,040404.000,3620.6693,N,13838.9675,E,1,0,,,M,,M,,*77
$GPRMC,040404.000,A,3620.6693,N,13838.9675,E,5.26,,030219,,,A*7D
$GPGGA,040405.000,3620.6693,N,13838.9693,E,1,0,,,M,,M,,*7E
$GPRMC,040405.000,A,3620.6693,N,13838.9693,E,5.03,,030219,,,A*73
$GPGGA,040406.000,3620.6692,N,13838.9708,E,1,0,,,M,,M,,*7F
$GPRMC,040406.000,A,3620.6692,N,13838.9708,E,4.41,,030219,,,A*75
$GPGGA,040407.000,3620.6692,N,13838.9722,E,1,0,,,M,,M,,*76
$GPRMC,040407.000,A,3620.6692,N,13838.9722,E,3.94,,030219,,,A*73
$GPGGA,040408.000,3620.6691,N,13838.9735,E,1,0,,,M,,M,,*7C
$GPRMC,040408.000,A,3620.6691,N,13838.9735,E,4.09,,030219,,,A*7A
$GPGGA,040409.000,3620.6689,N,13838.9749,E,1,0,,,M,,M,,*7F
$GPRMC,040409.000,A,3620.6689,N,13838.9749,E,4.38,,030219,,,A*7B
$GPGGA,040410.000,3620.6687,N,13838.9762,E,1,0,,,M,,M,,*70
$GPRMC,040410.000,A,3620.6687,N,13838.9762,E,3.91,,030219,,,A*70
$GPGGA,040411.000,3620.6687,N,13838.9775,E,1,0,,,M,,M,,*77
$GPRMC,040411.000,A,3620.6687,N,13838.9775,E,3.88,,030219,,,A*7F
$GPGGA,040412.000,3620.6687,N,13838.9789,E,1,0,,,M,,M,,*77
$GPRMC,040412.000,A,3620.6687,N,13838.9789,E,3.80,,030219,,,A*77
$GPGGA,040413.000,3620.6688,N,13838.9807,E,1,0,,,M,,M,,*70
$GPRMC,040413.000,A,3620.6688,N,13838.9807,E,4.00,,030219,,,A*7F
$GPGGA,040414.000,3620.6689,N,13838.9823,E,1,0,,,M,,M,,*70
$GPRMC,040414.000,A,3620.6689,N,13838.9823,E,4.21,,030219,,,A*7C
$GPGGA,040415.000,3620.6692,N,13838.9838,E,1,0,,,M,,M,,*71
$GPRMC,040415.000,A,3620.6692,N,13838.9838,E,4.01,,030219,,,A*7F
$GPGGA,040416.000,3620.6694,N,13838.9853,E,1,0,,,M,,M,,*79
$GPRMC,040416.000,A,3620.6694,N,13838.9853,E,4.22,,030219,,,A*76
$GPGGA,040417.000,3620.6696,N,13838.9867,E,1,0,,,M,,M,,*7D
$GPRMC,040417.000,A,3620.6696,N,13838.9867,E,4.42,,030219,,,A*74
$GPGGA,040418.000,3620.6698,N,13838.9880,E,1,0,,,M,,M,,*75
$GPRMC,040418.000,A,3620.6698,N,13838.9880,E,4.09,,030219,,,A*73
$GPGGA,040419.000,3620.6698,N,13838.9893,E,1,0,,,M,,M,,*76
$GPRMC,040419.000,A,3620.6698,N,13838.9893,E,3.93,,030219,,,A*74
$GPGGA,040420.000,3620.6697,N,13838.9911,E,1,0,,,M,,M,,*78
$GPRMC,040420.000,A,3620.6697,N,13838.9911,E,4.58,,030219,,,A*7A
$GPGGA,040421.000,3620.6697,N,13838.9926,E,1,0,,,M,,M,,*7D
$GPRMC,040421.000,A,3620.6697,N,13838.9926,E,4.61,,030219,,,A*75
$GPGGA,040422.000,3620.6699,N,13838.9944,E,1,0,,,M,,M,,*74
$GPRMC,040422.000,A,3620.6699,N,13838.9944,E,5.02,,030219,,,A*78
$GPGGA,040423.000,3620.6699,N,13838.9964,E,1,0,,,M,,M,,*77
$GPRMC,040423.000,A,3620.6699,N,13838.9964,E,4.59,,030219,,,A*74
$GPGGA,040424.000,3620.6700,N,13838.9982,E,1,0,,,M,,M,,*79
$GPRMC,040424.000,A,3620.6700,N,13838.9982,E,4.62,,030219,,,A*72
$GPGGA,040425.000,3620.6703,N,13838.9997,E,1,0,,,M,,M,,*7F
$GPRMC,040425.000,A,3620.6703,N,13838.9997,E,4.67,,030219,,,A*71
$GPGGA,040426.000,3620.6705,N,13839.0013,E,1,0,,,M,,M,,*77
$GPRMC,040426.000,A,3620.6705,N,13839.0013,E,4.49,,030219,,,A*75
$GPGGA,040427.000,3620.6707,N,13839.0027,E,1,0,,,M,,M,,*73
$GPRMC,040427.000,A,3620.6707,N,13839.0027,E,4.14,,030219,,,A*79
$GPGGA,040428.000,3620.6708,N,13839.0043,E,1,0,,,M,,M,,*71
$GPRMC,040428.000,A,3620.6708,N,13839.0043,E,4.78,,030219,,,A*71
$GPGGA,040429.000,3620.6709,N,13839.0060,E,1,0,,,M,,M,,*70
$GPRMC,040429.000,A,3620.6709,N,13839.0060,E,4.74,,030219,,,A*7C
$GPGGA,040430.000,3620.6710,N,13839.0078,E,1,0,,,M,,M,,*79
$GPRMC,040430.000,A,3620.6710,N,13839.0078,E,5.05,,030219,,,A*72
$GPGGA,040431.000,3620.6709,N,13839.0100,E,1,0,,,M,,M,,*7E
$GPRMC,040431.000,A,3620.6709,N,13839.0100,E,5.12,,030219,,,A*73
$GPGGA,040432.000,3620.6708,N,13839.0122,E,1,0,,,M,,M,,*7C
$GPRMC,040432.000,A,3620.6708,N,13839.0122,E,5.31,,030219,,,A*70
$GPGGA,040433.000,3620.6708,N,13839.0144,E,1,0,,,M,,M,,*7D
$GPRMC,040433.000,A,3620.6708,N,13839.0144,E,5.36,,030219,,,A*76
$GPGGA,040434.000,3620.6709,N,13839.0165,E,1,0,,,M,,M,,*78
$GPRMC,040434.000,A,3620.6709,N,13839.0165,E,5.32,,030219,,,A*77
$GPGGA,040435.000,3620.6711,N,13839.0182,E,1,0,,,M,,M,,*79
$GPRMC,040435.000,A,3620.6711,N,13839.0182,E,5.32,,030219,,,A*76
$GPGGA,040436.000,3620.6711,N,13839.0202,E,1,0,,,M,,M,,*71
$GPRMC,040436.000,A,3620.6711,N,13839.0202,E,5.32,,030219,,,A*7E
$GPGGA,040437.000,3620.6710,N,13839.0223,E,1,0,,,M,,M,,*72
$GPRMC,040437.000,A,3620.6710,N,13839.0223,E,5.54,,030219,,,A*7D
$GPGGA,040438.000,3620.6711,N,13839.0243,E,1,0,,,M,,M,,*7A
$GPRMC,040438.000,A,3620.6711,N,13839.0243,E,5.90,,030219,,,A*7D
$GPGGA,040439.000,3620.6709,N,13839.0268,E,1,0,,,M,,M,,*7B
$GPRMC,040439.000,A,3620.6709,N,13839.0268,E,5.87,,030219,,,A*7A
$GPGGA,040440.000,3620.6710,N,13839.0289,E,1,0,,,M,,M,,*72
$GPRMC,040440.000,A,3620.6710,N,13839.0289,E,5.84,,030219,,,A*70
$GPGGA,040441.000,3620.6715,N,13839.0309,E,1,0,,,M,,M,,*7F
$GPRMC,040441.000,A,3620.6715,N,13839.0309,E,5.83,,030219,,,A*7A
$GPGGA,040442.000,3620.6721,N,13839.0329,E,1,0,,,M,,M,,*79
$GPRMC,040442.000,A,3620.6721,N,13839.0329,E,5.86,,030219,,,A*79
$GPGGA,040443.000,3620.6726,N,13839.0348,E,1,0,,,M,,M,,*78
$GPRMC,040443.000,A,3620.6726,N,13839.0348,E,5.85,,030219,,,A*7B
$GPGGA,040444.000,3620.6731,N,13839.0369,E,1,0,,,M,,M,,*7A
$GPRMC,040444.000,A,3620.6731,N,13839.0369,E,6.07,,030219,,,A*70
$GPGGA,040445.000,3620.6736,N,13839.0389,E,1,0,,,M,,M,,*72
$GPRMC,040445.000,A,3620.6736,N,13839.0389,E,6.12,,030219,,,A*7C
$GPGGA,040446.000,3620.6745,N,13839.0408,E,1,0,,,M,,M,,*7B
$GPRMC,040446.000,A,3620.6745,N,13839.0408,E,6.06,,030219,,,A*70
$GPGGA,040447.000,3620.6754,N,13839.0427,E,1,0,,,M,,M,,*77
$GPRMC,040447.000,A,3620.6754,N,13839.0427,E,6.09,,030219,,,A*73
$GPGGA,040448.000,3620.6764,N,13839.0445,E,1,0,,,M,,M,,*7F
$GPRMC,040448.000,A,3620.6764,N,13839.0445,E,6.38,,030219,,,A*79
$GPGGA,040449.000,3620.6775,N,13839.0462,E,1,0,,,M,,M,,*7B
$GPRMC,040449.000,A,3620.6775,N,13839.0462,E,6.14,,030219,,,A*73
$GPGGA,040450.000,3620.6785,N,13839.0477,E,1,0,,,M,,M,,*78
$GPRMC,040450.000,A,3620.6785,N,13839.0477,E,6.11,,030219,,,A*75
$GPGGA,040451.000,3620.6796,N,13839.0493,E,1,0,,,M,,M,,*71
$GPRMC,040451.000,A,3620.6796,N,13839.0493,E,6.14,,030219,,,A*79
$GPGGA,040452.000,3620.6806,N,13839.0510,E,1,0,,,M,,M,,*7E
$GPRMC,040452.000,A,3620.6806,N,13839.0510,E,6.20,,030219,,,A*71
$GPGGA,040453.000,3620.6818,N,13839.0526,E,1,0,,,M,,M,,*75
$GPRMC,040453.000,A,3620.6818,N,13839.0526,E,6.26,,030219,,,A*7C
$GPGGA,040454.000,3620.6831,N,13839.0541,E,1,0,,,M,,M,,*78
$GPRMC,040454.000,A,3620.6831,N,13839.0541,E,6.24,,030219,,,A*73
$GPGGA,040455.000,3620.6845,N,13839.0554,E,1,0,,,M,,M,,*7E
$GPRMC,040455.000,A,3620.6845,N,13839.0554,E,6.23,,030219,,,A*72
$GPGGA,040456.000,3620.6860,N,13839.0567,E,1,0,,,M,,M,,*7A
$GPRMC,040456.000,A,3620.6860,N,13839.0567,E,6.21,,030219,,,A*74
$GPGGA,040457.000,3620.6873,N,13839.0580,E,1,0,,,M,,M,,*70
$GPRMC,040457.000,A,3620.6873,N,13839.0580,E,6.17,,030219,,,A*7B
$GPGGA,040458.000,3620.6886,N,13839.0591,E,1,0,,,M,,M,,*75
$GPRMC,040458.000,A,3620.6886,N,13839.0591,E,5.65,,030219,,,A*78
$GPGGA,040459.000,3620.6901,N,13839.0600,E,1,0,,,M,,M,,*71
$GPRMC,040459.000,A,3620.6901,N,13839.0600,E,5.69,,030219,,,A*70
$GPGGA,040500.000,3620.6915,N,13839.0608,E,1,0,,,M,,M,,*71
$GPRMC,040500.000,A,3620.6915,N,13839.0608,E,6.12,,030219,,,A*7F
$GPGGA,040501.000,3620.6930,N,13839.0619,E,1,0,,,M,,M,,*77
$GPRMC,040501.000,A,3620.6930,N,13839.0619,E,6.52,,030219,,,A*7D
$GPGGA,040502.000,3620.6944,N,13839.0632,E,1,0,,,M,,M,,*7E
$GPRMC,040502.000,A,3620.6944,N,13839.0632,E,6.02,,030219,,,A*71
$GPGGA,040503.000,3620.6959,N,13839.0645,E,1,0,,,M,,M,,*73
$GPRMC,040503.000,A,3620.6959,N,13839.0645,E,5.95,,030219,,,A*71
$GPGGA,040504.000,3620.6976,N,13839.0655,E,1,0,,,M,,M,,*78
$GPRMC,040504.000,A,3620.6976,N,13839.0655,E,5.87,,030219,,,A*79
$GPGGA,040505.000,3620.6992,N,13839.0662,E,1,0,,,M,,M,,*77
$GPRMC,040505.000,A,3620.6992,N,13839.0662,E,5.55,,030219,,,A*79
$GPGGA,040506.000,3620.7007,N,13839.0670,E,1,0,,,M,,M,,*73
$GPRMC,040506.000,A,3620.7007,N,13839.0670,E,4.95,,030219,,,A*70
$GPGGA,040507.000,3620.7020,N,13839.0676,E,1,0,,,M,,M,,*71
$GPRMC,040507.000,A,3620.7020,N,13839.0676,E,5.24,,030219,,,A*79
$GPGGA,040508.000,3620.7033,N,13839.0685,E,1,0,,,M,,M,,*70
$GPRMC,040508.000,A,3620.7033,N,13839.0685,E,5.46,,030219,,,A*7C
$GPGGA,040509.000,3620.7047,N,13839.0694,E,1,0,,,M,,M,,*72
$GPRMC,040509.000,A,3620.7047,N,13839.0694,E,5.42,,030219,,,A*7A
$GPGGA,040510.000,3620.7051,N,13839.0707,E,1,0,,,M,,M,,*76
$GPRMC,040510.000,A,3620.7051,N,13839.0707,E,5.42,,030219,,,A*7E
$GPGGA,040511.000,3620.7059,N,13839.0717,E,1,0,,,M,,M,,*7E
$GPRMC,040511.000,A,3620.7059,N,13839.0717,E,5.62,,030219,,,A*74
$GPGGA,040512.000,3620.7069,N,13839.0727,E,1,0,,,M,,M,,*7D
$GPRMC,040512.000,A,3620.7069,N,13839.0727,E,5.84,,030219,,,A*7F
$GPGGA,040513.000,3620.7085,N,13839.0739,E,1,0,,,M,,M,,*71
$GPRMC,040513.000,A,3620.7085,N,13839.0739,E,6.29,,030219,,,A*77
$GPGGA,040514.000,3620.7106,N,13839.0751,E,1,0,,,M,,M,,*72
$GPRMC,040514.000,A,3620.7106,N,13839.0751,E,6.10,,030219,,,A*7E
$GPGGA,040515.000,3620.7125,N,13839.0756,E,1,0,,,M,,M,,*75
$GPRMC,040515.000,A,3620.7125,N,13839.0756,E,6.09,,030219,,,A*71
$GPGGA,040516.000,3620.7144,N,13839.0757,E,1,0,,,M,,M,,*70
$GPRMC,040516.000,A,3620.7144,N,13839.0757,E,6.17,,030219,,,A*7B
$GPGGA,040517.000,3620.7164,N,13839.0759,E,1,0,,,M,,M,,*7D
$GPRMC,040517.000,A,3620.7164,N,13839.0759,E,6.14,,030219,,,A*75
$GPGGA,040518.000,3620.7184,N,13839.0753,E,1,0,,,M,,M,,*76
$GPRMC,040518.000,A,3620.7184,N,13839.0753,E,6.48,,030219,,,A*77
$GPGGA,040519.000,3620.7204,N,13839.0739,E,1,0,,,M,,M,,*70
$GPRMC,040519.000,A,3620.7204,N,13839.0739,E,7.24,,030219,,,A*7A
$GPGGA,040520.000,3620.7227,N,13839.0722,E,1,0,,,M,,M,,*71
$GPRMC,040520.000,A,3620.7227,N,13839.0722,E,8.24,,030219,,,A*74
$GPGGA,040521.000,3620.7248,N,13839.0702,E,1,0,,,M,,M,,*7B
$GPRMC,040521.000,A,3620.7248,N,13839.0702,E,8.98,,030219,,,A*79
$GPGGA,040522.000,3620.7264,N,13839.0679,E,1,0,,,M,,M,,*7B
$GPRMC,040522.000,A,3620.7264,N,13839.0679,E,8.94,,030219,,,A*75
$GPGGA,040523.000,3620.7277,N,13839.0659,E,1,0,,,M,,M,,*7A
$GPRMC,040523.000,A,3620.7277,N,13839.0659,E,7.67,,030219,,,A*77
$GPGGA,040524.000,3620.7289,N,13839.0645,E,1,0,,,M,,M,,*71
$GPRMC,040524.000,A,3620.7289,N,13839.0645,E,6.03,,030219,,,A*7F
$GPGGA,040525.000,3620.7301,N,13839.0634,E,1,0,,,M,,M,,*77
$GPRMC,040525.000,A,3620.7301,N,13839.0634,E,5.65,,030219,,,A*7A
$GPGGA,040526.000,3620.7316,N,13839.0626,E,1,0,,,M,,M,,*71
$GPRMC,040526.000,A,3620.7316,N,13839.0626,E,6.17,,030219,,,A*7A
$GPGGA,040527.000,3620.7333,N,13839.0622,E,1,0,,,M,,M,,*73
$GPRMC,040527.000,A,3620.7333,N,13839.0622,E,6.41,,030219,,,A*7B
$GPGGA,040528.000,3620.7353,N,13839.0620,E,1,0,,,M,,M,,*78
$GPRMC,040528.000,A,3620.7353,N,13839.0620,E,7.08,,030219,,,A*7C
$GPGGA,040529.000,3620.7376,N,13839.0623,E,1,0,,,M,,M,,*7D
$GPRMC,040529.000,A,3620.7376,N,13839.0623,E,7.83,,030219,,,A*7A
$GPGGA,040530.000,3620.7397,N,13839.0631,E,1,0,,,M,,M,,*79
$GPRMC,040530.000,A,3620.7397,N,13839.0631,E,8.11,,030219,,,A*7A
$GPGGA,040531.000,3620.7422,N,13839.0642,E,1,0,,,M,,M,,*75
$GPRMC,040531.000,A,3620.7422,N,13839.0642,E,8.16,,030219,,,A*71
$GPGGA,040532.000,3620.7447,N,13839.0653,E,1,0,,,M,,M,,*75
$GPRMC,040532.000,A,3620.7447,N,13839.0653,E,7.78,,030219,,,A*76
$GPGGA,040533.000,3620.7467,N,13839.0669,E,1,0,,,M,,M,,*7F
$GPRMC,040533.000,A,3620.7467,N,13839.0669,E,7.58,,030219,,,A*7E
$GPGGA,040534.000,3620.7490,N,13839.0683,E,1,0,,,M,,M,,*74
$GPRMC,040534.000,A,3620.7490,N,13839.0683,E,7.94,,030219,,,A*75
$GPGGA,040535.000,3620.7506,N,13839.0702,E,1,0,,,M,,M,,*73
$GPRMC,040535.000,A,3620.7506,N,13839.0702,E,7.96,,030219,,,A*70
$GPGGA,040536.000,3620.7523,N,13839.0720,E,1,0,,,M,,M,,*77
$GPRMC,040536.000,A,3620.7523,N,13839.0720,E,8.01,,030219,,,A*75
$GPGGA,040537.000,3620.7540,N,13839.0737,E,1,0,,,M,,M,,*75
$GPRMC,040537.000,A,3620.7540,N,13839.0737,E,7.28,,030219,,,A*73
$GPGGA,040538.000,3620.7554,N,13839.0751,E,1,0,,,M,,M,,*7F
$GPRMC,040538.000,A,3620.7554,N,13839.0751,E,6.17,,030219,,,A*74
$GPGGA,040539.000,3620.7570,N,13839.0759,E,1,0,,,M,,M,,*70
$GPRMC,040539.000,A,3620.7570,N,13839.0759,E,5.35,,030219,,,A*78
$GPGGA,040540.000,3620.7582,N,13839.0762,E,1,0,,,M,,M,,*7B
$GPRMC,040540.000,A,3620.7582,N,13839.0762,E,4.46,,030219,,,A*76
$GPGGA,040541.000,3620.7594,N,13839.0760,E,1,0,,,M,,M,,*7F
$GPRMC,040541.000,A,3620.7594,N,13839.0760,E,4.50,,030219,,,A*75
$GPGGA,040542.000,3620.7606,N,13839.0748,E,1,0,,,M,,M,,*7E
$GPRMC,040542.000,A,3620.7606,N,13839.0748,E,5.30,,030219,,,A*73
$GPGGA,040543.000,3620.7624,N,13839.0729,E,1,0,,,M,,M,,*78
$GPRMC,040543.000,A,3620.7624,N,13839.0729,E,7.03,,030219,,,A*77
$GPGGA,040544.000,3620.7638,N,13839.0716,E,1,0,,,M,,M,,*7E
$GPRMC,040544.000,A,3620.7638,N,13839.0716,E,7.07,,030219,,,A*75
$GPGGA,040545.000,3620.7654,N,13839.0705,E,1,0,,,M,,M,,*77
$GPRMC,040545.000,A,3620.7654,N,13839.0705,E,7.14,,030219,,,A*7E
$GPGGA,040546.000,3620.7673,N,13839.0698,E,1,0,,,M,,M,,*74
$GPRMC,040546.000,A,3620.7673,N,13839.0698,E,7.21,,030219,,,A*7B
$GPGGA,040547.000,3620.7694,N,13839.0699,E,1,0,,,M,,M,,*7D
$GPRMC,040547.000,A,3620.7694,N,13839.0699,E,8.31,,030219,,,A*7C
$GPGGA,040548.000,3620.7720,N,13839.0706,E,1,0,,,M,,M,,*7B
$GPRMC,040548.000,A,3620.7720,N,13839.0706,E,9.50,,030219,,,A*7C
$GPGGA,040549.000,3620.7742,N,13839.0714,E,1,0,,,M,,M,,*7D
$GPRMC,040549.000,A,3620.7742,N,13839.0714,E,9.84,,030219,,,A*73
$GPGGA,040550.000,3620.7764,N,13839.0730,E,1,0,,,M,,M,,*77
$GPRMC,040550.000,A,3620.7764,N,13839.0730,E,9.27,,030219,,,A*70
$GPGGA,040551.000,3620.7784,N,13839.0747,E,1,0,,,M,,M,,*78
$GPRMC,040551.000,A,3620.7784,N,13839.0747,E,9.58,,030219,,,A*77
$GPGGA,040552.000,3620.7804,N,13839.0762,E,1,0,,,M,,M,,*7B
$GPRMC,040552.000,A,3620.7804,N,13839.0762,E,8.53,,030219,,,A*7E
$GPGGA,040553.000,3620.7824,N,13839.0773,E,1,0,,,M,,M,,*78
$GPRMC,040553.000,A,3620.7824,N,13839.0773,E,8.19,,030219,,,A*73
$GPGGA,040554.000,3620.7841,N,13839.0785,E,1,0,,,M,,M,,*75
$GPRMC,040554.000,A,3620.7841,N,13839.0785,E,7.91,,030219,,,A*71
$GPGGA,040555.000,3620.7862,N,13839.0795,E,1,0,,,M,,M,,*74
$GPRMC,040555.000,A,3620.7862,N,13839.0795,E,7.91,,030219,,,A*70
$GPGGA,040556.000,3620.7886,N,13839.0802,E,1,0,,,M,,M,,*7C
$GPRMC,040556.000,A,3620.7886,N,13839.0802,E,8.42,,030219,,,A*79
$GPGGA,040557.000,3620.7908,N,13839.0809,E,1,0,,,M,,M,,*71
$GPRMC,040557.000,A,3620.7908,N,13839.0809,E,8.40,,030219,,,A*76
$GPGGA,040558.000,3620.7930,N,13839.0816,E,1,0,,,M,,M,,*7B
$GPRMC,040558.000,A,3620.7930,N,13839.0816,E,8.44,,030219,,,A*78
$GPGGA,040559.000,3620.7954,N,13839.0824,E,1,0,,,M,,M,,*79
$GPRMC,040559.000,A,3620.7954,N,13839.0824,E,8.89,,030219,,,A*7B
$GPGGA,040600.000,3620.7978,N,13839.0839,E,1,0,,,M,,M,,*74
$GPRMC,040600.000,A,3620.7978,N,13839.0839,E,9.60,,030219,,,A*70
$GPGGA,040601.000,3620.8000,N,13839.0856,E,1,0,,,M,,M,,*75
$GPRMC,040601.000,A,3620.8000,N,13839.0856,E,8.79,,030219,,,A*78
$GPGGA,040602.000,3620.8014,N,13839.0887,E,1,0,,,M,,M,,*7F
$GPRMC,040602.000,A,3620.8014,N,13839.0887,E,7.66,,030219,,,A*73
$GPGGA,040603.000,3620.8018,N,13839.0926,E,1,0,,,M,,M,,*78
$GPRMC,040603.000,A,3620.8018,N,13839.0926,E,7.00,,030219,,,A*74
$GPGGA,040604.000,3620.8017,N,13839.0957,E,1,0,,,M,,M,,*76
$GPRMC,040604.000,A,3620.8017,N,13839.0957,E,6.94,,030219,,,A*76
$GPGGA,040605.000,3620.8005,N,13839.0987,E,1,0,,,M,,M,,*79
$GPRMC,040605.000,A,3620.8005,N,13839.0987,E,7.33,,030219,,,A*75
$GPGGA,040606.000,3620.7988,N,13839.1014,E,1,0,,,M,,M,,*7B
$GPRMC,040606.000,A,3620.7988,N,13839.1014,E,8.19,,030219,,,A*70
$GPGGA,040607.000,3620.7961,N,13839.1038,E,1,0,,,M,,M,,*73
$GPRMC,040607.000,A,3620.7961,N,13839.1038,E,10.06,,030219,,,A*4F
$GPGGA,040608.000,3620.7933,N,13839.1060,E,1,0,,,M,,M,,*76
$GPRMC,040608.000,A,3620.7933,N,13839.1060,E,10.96,,030219,,,A*43
$GPGGA,040609.000,3620.7911,N,13839.1084,E,1,0,,,M,,M,,*7D
$GPRMC,040609.000,A,3620.7911,N,13839.1084,E,10.66,,030219,,,A*47
$GPGGA,040610.000,3620.7893,N,13839.1111,E,1,0,,,M,,M,,*73
$GPRMC,040610.000,A,3620.7893,N,13839.1111,E,10.40,,030219,,,A*4D
$GPGGA,040611.000,3620.7880,N,13839.1144,E,1,0,,,M,,M,,*70
$GPRMC,040611.000,A,3620.7880,N,13839.1144,E,10.23,,030219,,,A*4B
$GPGGA,040612.000,3620.7873,N,13839.1184,E,1,0,,,M,,M,,*73
$GPRMC,040612.000,A,3620.7873,N,13839.1184,E,10.94,,030219,,,A*44
$GPGGA,040613.000,3620.7873,N,13839.1225,E,1,0,,,M,,M,,*7A
$GPRMC,040613.000,A,3620.7873,N,13839.1225,E,11.51,,030219,,,A*45
$GPGGA,040614.000,3620.7882,N,13839.1263,E,1,0,,,M,,M,,*71
$GPRMC,040614.000,A,3620.7882,N,13839.1263,E,11.57,,030219,,,A*48
$GPGGA,040615.000,3620.7898,N,13839.1301,E,1,0,,,M,,M,,*7E
$GPRMC,040615.000,A,3620.7898,N,13839.1301,E,12.08,,030219,,,A*4E
$GPGGA,040616.000,3620.7918,N,13839.1337,E,1,0,,,M,,M,,*71
$GPRMC,040616.000,A,3620.7918,N,13839.1337,E,12.10,,030219,,,A*48
$GPGGA,040617.000,3620.7941,N,13839.1372,E,1,0,,,M,,M,,*7D
$GPRMC,040617.000,A,3620.7941,N,13839.1372,E,11.63,,030219,,,A*43
$GPGGA,040618.000,3620.7966,N,13839.1401,E,1,0,,,M,,M,,*74
$GPRMC,040618.000,A,3620.7966,N,13839.1401,E,11.20,,030219,,,A*4D
$GPGGA,040619.000,3620.7993,N,13839.1427,E,1,0,,,M,,M,,*7B
$GPRMC,040619.000,A,3620.7993,N,13839.1427,E,11.60,,030219,,,A*46
$GPGGA,040620.000,3620.8021,N,13839.1452,E,1,0,,,M,,M,,*7C
$GPRMC,040620.000,A,3620.8021,N,13839.1452,E,12.04,,030219,,,A*40
$GPGGA,040621.000,3620.8052,N,13839.1483,E,1,0,,,M,,M,,*75
$GPRMC,040621.000,A,3620.8052,N,13839.1483,E,12.12,,030219,,,A*4E
$GPGGA,040622.000,3620.8082,N,13839.1510,E,1,0,,,M,,M,,*70
$GPRMC,040622.000,A,3620.8082,N,13839.1510,E,12.70,,030219,,,A*4F
$GPGGA,040623.000,3620.8111,N,13839.1534,E,1,0,,,M,,M,,*7C
$GPRMC,040623.000,A,3620.8111,N,13839.1534,E,12.86,,030219,,,A*4A
$GPGGA,040624.000,3620.8140,N,13839.1560,E,1,0,,,M,,M,,*7E
$GPRMC,040624.000,A,3620.8140,N,13839.1560,E,12.83,,030219,,,A*4D
$GPGGA,040625.000,3620.8168,N,13839.1587,E,1,0,,,M,,M,,*7C
$GPRMC,040625.000,A,3620.8168,N,13839.1587,E,13.04,,030219,,,A*41
$GPGGA,040626.000,3620.8196,N,13839.1612,E,1,0,,,M,,M,,*71
$GPRMC,040626.000,A,3620.8196,N,13839.1612,E,11.49,,030219,,,A*47
$GPGGA,040627.000,3620.8223,N,13839.1636,E,1,0,,,M,,M,,*7B
$GPRMC,040627.000,A,3620.8223,N,13839.1636,E,10.91,,030219,,,A*49
$GPGGA,040628.000,3620.8253,N,13839.1660,E,1,0,,,M,,M,,*70
$GPRMC,040628.000,A,3620.8253,N,13839.1660,E,10.94,,030219,,,A*47
$GPGGA,040629.000,3620.8284,N,13839.1679,E,1,0,,,M,,M,,*73
$GPRMC,040629.000,A,3620.8284,N,13839.1679,E,10.71,,030219,,,A*4F
$GPGGA,040630.000,3620.8309,N,13839.1692,E,1,0,,,M,,M,,*7A
$GPRMC,040630.000,A,3620.8309,N,13839.1692,E,9.15,,030219,,,A*7C
$GPGGA,040631.000,3620.8335,N,13839.1693,E,1,0,,,M,,M,,*75
$GPRMC,040631.000,A,3620.8335,N,13839.1693,E,7.61,,030219,,,A*7E
$GPGGA,040632.000,3620.8370,N,13839.1675,E,1,0,,,M,,M,,*7F
$GPRMC,040632.000,A,3620.8370,N,13839.1675,E,10.40,,030219,,,A*41
$GPGGA,040633.000,3620.8396,N,13839.1660,E,1,0,,,M,,M,,*72
$GPRMC,040633.000,A,3620.8396,N,13839.1660,E,10.71,,030219,,,A*4E
$GPGGA,040634.000,3620.8417,N,13839.1631,E,1,0,,,M,,M,,*7F
$GPRMC,040634.000,A,3620.8417,N,13839.1631,E,10.75,,030219,,,A*47
$GPGGA,040635.000,3620.8436,N,13839.1605,E,1,0,,,M,,M,,*7A
$GPRMC,040635.000,A,3620.8436,N,13839.1605,E,9.92,,030219,,,A*73
$GPGGA,040636.000,3620.8457,N,13839.1578,E,1,0,,,M,,M,,*77
$GPRMC,040636.000,A,3620.8457,N,13839.1578,E,10.11,,030219,,,A*4D
$GPGGA,040637.000,3620.8474,N,13839.1553,E,1,0,,,M,,M,,*7E
$GPRMC,040637.000,A,3620.8474,N,13839.1553,E,9.28,,030219,,,A*76
$GPGGA,040638.000,3620.8489,N,13839.1531,E,1,0,,,M,,M,,*77
$GPRMC,040638.000,A,3620.8489,N,13839.1531,E,8.23,,030219,,,A*75
$GPGGA,040639.000,3620.8507,N,13839.1514,E,1,0,,,M,,M,,*76
$GPRMC,040639.000,A,3620.8507,N,13839.1514,E,7.50,,030219,,,A*7F
$GPGGA,040640.000,3620.8530,N,13839.1502,E,1,0,,,M,,M,,*7B
$GPRMC,040640.000,A,3620.8530,N,13839.1502,E,8.57,,030219,,,A*7A
$GPGGA,040641.000,3620.8555,N,13839.1497,E,1,0,,,M,,M,,*74
$GPRMC,040641.000,A,3620.8555,N,13839.1497,E,9.10,,030219,,,A*77
$GPGGA,040642.000,3620.8580,N,13839.1499,E,1,0,,,M,,M,,*71
$GPRMC,040642.000,A,3620.8580,N,13839.1499,E,9.31,,030219,,,A*71
$GPGGA,040643.000,3620.8608,N,13839.1506,E,1,0,,,M,,M,,*74
$GPRMC,040643.000,A,3620.8608,N,13839.1506,E,9.67,,030219,,,A*77
$GPGGA,040644.000,3620.8635,N,13839.1518,E,1,0,,,M,,M,,*72
$GPRMC,040644.000,A,3620.8635,N,13839.1518,E,9.26,,030219,,,A*74
$GPGGA,040645.000,3620.8663,N,13839.1532,E,1,0,,,M,,M,,*78
$GPRMC,040645.000,A,3620.8663,N,13839.1532,E,9.84,,030219,,,A*76
$GPGGA,040646.000,3620.8683,N,13839.1553,E,1,0,,,M,,M,,*72
$GPRMC,040646.000,A,3620.8683,N,13839.1553,E,9.30,,030219,,,A*73
$GPGGA,040647.000,3620.8694,N,13839.1579,E,1,0,,,M,,M,,*7D
$GPRMC,040647.000,A,3620.8694,N,13839.1579,E,7.58,,030219,,,A*7C
$GPGGA,040648.000,3620.8698,N,13839.1615,E,1,0,,,M,,M,,*77
$GPRMC,040648.000,A,3620.8698,N,13839.1615,E,8.32,,030219,,,A*75
$GPGGA,040649.000,3620.8698,N,13839.1649,E,1,0,,,M,,M,,*7F
$GPRMC,040649.000,A,3620.8698,N,13839.1649,E,9.20,,030219,,,A*7F
$GPGGA,040650.000,3620.8695,N,13839.1682,E,1,0,,,M,,M,,*7D
$GPRMC,040650.000,A,3620.8695,N,13839.1682,E,9.15,,030219,,,A*7B
$GPGGA,040651.000,3620.8690,N,13839.1715,E,1,0,,,M,,M,,*76
$GPRMC,040651.000,A,3620.8690,N,13839.1715,E,9.20,,030219,,,A*76
$GPGGA,040652.000,3620.8685,N,13839.1754,E,1,0,,,M,,M,,*74
$GPRMC,040652.000,A,3620.8685,N,13839.1754,E,9.98,,030219,,,A*77
$GPGGA,040653.000,3620.8679,N,13839.1789,E,1,0,,,M,,M,,*76
$GPRMC,040653.000,A,3620.8679,N,13839.1789,E,9.83,,030219,,,A*7F
$GPGGA,040654.000,3620.8671,N,13839.1827,E,1,0,,,M,,M,,*72
$GPRMC,040654.000,A,3620.8671,N,13839.1827,E,9.84,,030219,,,A*7C
$GPGGA,040655.000,3620.8659,N,13839.1861,E,1,0,,,M,,M,,*7B
$GPRMC,040655.000,A,3620.8659,N,13839.1861,E,9.82,,030219,,,A*73
$GPGGA,040656.000,3620.8648,N,13839.1894,E,1,0,,,M,,M,,*72
$GPRMC,040656.000,A,3620.8648,N,13839.1894,E,9.82,,030219,,,A*7A
$GPGGA,040657.000,3620.8634,N,13839.1929,E,1,0,,,M,,M,,*7F
$GPRMC,040657.000,A,3620.8634,N,13839.1929,E,9.83,,030219,,,A*76
$GPGGA,040658.000,3620.8619,N,13839.1962,E,1,0,,,M,,M,,*70
$GPRMC,040658.000,A,3620.8619,N,13839.1962,E,9.62,,030219,,,A*76
$GPGGA,040659.000,3620.8603,N,13839.1993,E,1,0,,,M,,M,,*74
$GPRMC,040659.000,A,3620.8603,N,13839.1993,E,9.59,,030219,,,A*7A
$GPGGA,040700.000,3620.8589,N,13839.2029,E,1,0,,,M,,M,,*73
$GPRMC,040700.000,A,3620.8589,N,13839.2029,E,10.05,,030219,,,A*4C
$GPGGA,040701.000,3620.8586,N,13839.2067,E,1,0,,,M,,M,,*77
$GPRMC,040701.000,A,3620.8586,N,13839.2067,E,10.64,,030219,,,A*4F
$GPGGA,040702.000,3620.8601,N,13839.2111,E,1,0,,,M,,M,,*78
$GPRMC,040702.000,A,3620.8601,N,13839.2111,E,11.23,,030219,,,A*42
$GPGGA,040703.000,3620.8621,N,13839.2153,E,1,0,,,M,,M,,*7D
$GPRMC,040703.000,A,3620.8621,N,13839.2153,E,12.13,,030219,,,A*47
$GPGGA,040704.000,3620.8643,N,13839.2186,E,1,0,,,M,,M,,*76
$GPRMC,040704.000,A,3620.8643,N,13839.2186,E,11.53,,030219,,,A*4B
$GPGGA,040705.000,3620.8667,N,13839.2207,E,1,0,,,M,,M,,*7B
$GPRMC,040705.000,A,3620.8667,N,13839.2207,E,10.39,,030219,,,A*4B
$GPGGA,040706.000,3620.8691,N,13839.2221,E,1,0,,,M,,M,,*75
$GPRMC,040706.000,A,3620.8691,N,13839.2221,E,9.82,,030219,,,A*7D
$GPGGA,040707.000,3620.8716,N,13839.2240,E,1,0,,,M,,M,,*7D
$GPRMC,040707.000,A,3620.8716,N,13839.2240,E,11.31,,030219,,,A*44
$GPGGA,040708.000,3620.8745,N,13839.2264,E,1,0,,,M,,M,,*72
$GPRMC,040708.000,A,3620.8745,N,13839.2264,E,13.31,,030219,,,A*49
$GPGGA,040709.000,3620.8773,N,13839.2295,E,1,0,,,M,,M,,*78
$GPRMC,040709.000,A,3620.8773,N,13839.2295,E,13.33,,030219,,,A*41
$GPGGA,040710.000,3620.8795,N,13839.2334,E,1,0,,,M,,M,,*72
$GPRMC,040710.000,A,3620.8795,N,13839.2334,E,13.34,,030219,,,A*4C
$GPGGA,040711.000,3620.8808,N,13839.2379,E,1,0,,,M,,M,,*71
$GPRMC,040711.000,A,3620.8808,N,13839.2379,E,13.67,,030219,,,A*49
$GPGGA,040712.000,3620.8814,N,13839.2430,E,1,0,,,M,,M,,*75
$GPRMC,040712.000,A,3620.8814,N,13839.2430,E,14.64,,030219,,,A*49
$GPGGA,040713.000,3620.8819,N,13839.2480,E,1,0,,,M,,M,,*72
$GPRMC,040713.000,A,3620.8819,N,13839.2480,E,14.90,,030219,,,A*45
$GPGGA,040714.000,3620.8825,N,13839.2531,E,1,0,,,M,,M,,*71
$GPRMC,040714.000,A,3620.8825,N,13839.2531,E,14.85,,030219,,,A*42
$GPGGA,040715.000,3620.8831,N,13839.2578,E,1,0,,,M,,M,,*78
$GPRMC,040715.000,A,3620.8831,N,13839.2578,E,13.52,,030219,,,A*46
$GPGGA,040716.000,3620.8839,N,13839.2621,E,1,0,,,M,,M,,*7C
$GPRMC,040716.000,A,3620.8839,N,13839.2621,E,13.19,,030219,,,A*4D
$GPGGA,040717.000,3620.8853,N,13839.2661,E,1,0,,,M,,M,,*75
$GPRMC,040717.000,A,3620.8853,N,13839.2661,E,13.57,,030219,,,A*4E
$GPGGA,040718.000,3620.8872,N,13839.2700,E,1,0,,,M,,M,,*7F
$GPRMC,040718.000,A,3620.8872,N,13839.2700,E,13.62,,030219,,,A*42
$GPGGA,040719.000,3620.8897,N,13839.2736,E,1,0,,,M,,M,,*70
$GPRMC,040719.000,A,3620.8897,N,13839.2736,E,13.57,,030219,,,A*4B
$GPGGA,040720.000,3620.8922,N,13839.2771,E,1,0,,,M,,M,,*76
$GPRMC,040720.000,A,3620.8922,N,13839.2771,E,13.88,,030219,,,A*4F
$GPGGA,040721.000,3620.8948,N,13839.2808,E,1,0,,,M,,M,,*7A
$GPRMC,040721.000,A,3620.8948,N,13839.2808,E,13.88,,030219,,,A*43
$GPGGA,040722.000,3620.8972,N,13839.2843,E,1,0,,,M,,M,,*7F
$GPRMC,040722.000,A,3620.8972,N,13839.2843,E,13.23,,030219,,,A*47
$GPGGA,040723.000,3620.8997,N,13839.2877,E,1,0,,,M,,M,,*72
$GPRMC,040723.000,A,3620.8997,N,13839.2877,E,12.84,,030219,,,A*46
$GPGGA,040724.000,3620.9022,N,13839.2908,E,1,0,,,M,,M,,*7A
$GPRMC,040724.000,A,3620.9022,N,13839.2908,E,11.61,,030219,,,A*46
$GPGGA,040725.000,3620.9047,N,13839.2927,E,1,0,,,M,,M,,*75
$GPRMC,040725.000,A,3620.9047,N,13839.2927,E,9.43,,030219,,,A*70
$GPGGA,040726.000,3620.9070,N,13839.2934,E,1,0,,,M,,M,,*70
$GPRMC,040726.000,A,3620.9070,N,13839.2934,E,6.66,,030219,,,A*7D
$GPGGA,040727.000,3620.9101,N,13839.2920,E,1,0,,,M,,M,,*73
$GPRMC,040727.000,A,3620.9101,N,13839.2920,E,7.22,,030219,,,A*7F
$GPGGA,040728.000,3620.9124,N,13839.2910,E,1,0,,,M,,M,,*78
$GPRMC,040728.000,A,3620.9124,N,13839.2910,E,7.71,,030219,,,A*72
$GPGGA,040729.000,3620.9147,N,13839.2900,E,1,0,,,M,,M,,*7D
$GPRMC,040729.000,A,3620.9147,N,13839.2900,E,7.99,,030219,,,A*71
$GPGGA,040730.000,3620.9172,N,13839.2890,E,1,0,,,M,,M,,*7B
$GPRMC,040730.000,A,3620.9172,N,13839.2890,E,8.26,,030219,,,A*7C
$GPGGA,040731.000,3620.9205,N,13839.2866,E,1,0,,,M,,M,,*70
$GPRMC,040731.000,A,3620.9205,N,13839.2866,E,9.96,,030219,,,A*7D
$GPGGA,040732.000,3620.9231,N,13839.2853,E,1,0,,,M,,M,,*72
$GPRMC,040732.000,A,3620.9231,N,13839.2853,E,9.36,,030219,,,A*75
$GPGGA,040733.000,3620.9258,N,13839.2842,E,1,0,,,M,,M,,*7C
$GPRMC,040733.000,A,3620.9258,N,13839.2842,E,9.42,,030219,,,A*78
$GPGGA,040734.000,3620.9283,N,13839.2840,E,1,0,,,M,,M,,*7F
$GPRMC,040734.000,A,3620.9283,N,13839.2840,E,9.49,,030219,,,A*70
$GPGGA,040735.000,3620.9307,N,13839.2846,E,1,0,,,M,,M,,*75
$GPRMC,040735.000,A,3620.9307,N,13839.2846,E,10.15,,030219,,,A*4B
$GPGGA,040736.000,3620.9335,N,13839.2861,E,1,0,,,M,,M,,*72
$GPRMC,040736.000,A,3620.9335,N,13839.2861,E,10.83,,030219,,,A*43
$GPGGA,040737.000,3620.9363,N,13839.2878,E,1,0,,,M,,M,,*78
$GPRMC,040737.000,A,3620.9363,N,13839.2878,E,10.87,,030219,,,A*4D
$GPGGA,040738.000,3620.9385,N,13839.2904,E,1,0,,,M,,M,,*75
$GPRMC,040738.000,A,3620.9385,N,13839.2904,E,10.02,,030219,,,A*4D
$GPGGA,040739.000,3620.9403,N,13839.2934,E,1,0,,,M,,M,,*7E
$GPRMC,040739.000,A,3620.9403,N,13839.2934,E,9.74,,030219,,,A*7F
$GPGGA,040740.000,3620.9416,N,13839.2964,E,1,0,,,M,,M,,*71
$GPRMC,040740.000,A,3620.9416,N,13839.2964,E,9.73,,030219,,,A*77
$GPGGA,040741.000,3620.9428,N,13839.2999,E,1,0,,,M,,M,,*7F
$GPRMC,040741.000,A,3620.9428,N,13839.2999,E,9.97,,030219,,,A*73
$GPGGA,040742.000,3620.9437,N,13839.3038,E,1,0,,,M,,M,,*71
$GPRMC,040742.000,A,3620.9437,N,13839.3038,E,10.58,,030219,,,A*46
$GPGGA,040743.000,3620.9449,N,13839.3074,E,1,0,,,M,,M,,*71
$GPRMC,040743.000,A,3620.9449,N,13839.3074,E,10.83,,030219,,,A*40
$GPGGA,040744.000,3620.9463,N,13839.3108,E,1,0,,,M,,M,,*74
$GPRMC,040744.000,A,3620.9463,N,13839.3108,E,10.46,,030219,,,A*4C
$GPGGA,040745.000,3620.9481,N,13839.3140,E,1,0,,,M,,M,,*75
$GPRMC,040745.000,A,3620.9481,N,13839.3140,E,10.03,,030219,,,A*4C
$GPGGA,040746.000,3620.9501,N,13839.3170,E,1,0,,,M,,M,,*7C
$GPRMC,040746.000,A,3620.9501,N,13839.3170,E,10.21,,030219,,,A*45
$GPGGA,040747.000,3620.9517,N,13839.3197,E,1,0,,,M,,M,,*73
$GPRMC,040747.000,A,3620.9517,N,13839.3197,E,9.78,,030219,,,A*7E
$GPGGA,040748.000,3620.9529,N,13839.3232,E,1,0,,,M,,M,,*7D
$GPRMC,040748.000,A,3620.9529,N,13839.3232,E,9.98,,030219,,,A*7E
$GPGGA,040749.000,3620.9539,N,13839.3266,E,1,0,,,M,,M,,*7C
$GPRMC,040749.000,A,3620.9539,N,13839.3266,E,9.61,,030219,,,A*79
$GPGGA,040750.000,3620.9545,N,13839.3297,E,1,0,,,M,,M,,*71
$GPRMC,040750.000,A,3620.9545,N,13839.3297,E,8.99,,030219,,,A*72
$GPGGA,040751.000,3620.9545,N,13839.3333,E,1,0,,,M,,M,,*7F
$GPRMC,040751.000,A,3620.9545,N,13839.3333,E,9.99,,030219,,,A*7D
$GPGGA,040752.000,3620.9540,N,13839.3371,E,1,0,,,M,,M,,*7F
$GPRMC,040752.000,A,3620.9540,N,13839.3371,E,10.24,,030219,,,A*43
$GPGGA,040753.000,3620.9534,N,13839.3406,E,1,0,,,M,,M,,*7A
$GPRMC,040753.000,A,3620.9534,N,13839.3406,E,9.63,,030219,,,A*7D
$GPGGA,040754.000,3620.9530,N,13839.3440,E,1,0,,,M,,M,,*7B
$GPRMC,040754.000,A,3620.9530,N,13839.3440,E,9.35,,030219,,,A*7F
$GPGGA,040755.000,3620.9529,N,13839.3472,E,1,0,,,M,,M,,*73
$GPRMC,040755.000,A,3620.9529,N,13839.3472,E,8.96,,030219,,,A*7F
$GPGGA,040756.000,3620.9528,N,13839.3500,E,1,0,,,M,,M,,*75
$GPRMC,040756.000,A,3620.9528,N,13839.3500,E,8.19,,030219,,,A*7E
$GPGGA,040757.000,3620.9528,N,13839.3521,E,1,0,,,M,,M,,*77
$GPRMC,040757.000,A,3620.9528,N,13839.3521,E,6.23,,030219,,,A*7B
$GPGGA,040758.000,3620.9527,N,13839.3534,E,1,0,,,M,,M,,*73
$GPRMC,040758.000,A,3620.9527,N,13839.3534,E,3.81,,030219,,,A*72
$GPGGA,040759.000,3620.9526,N,13839.3547,E,1,0,,,M,,M,,*77
$GPRMC,040759.000,A,3620.9526,N,13839.3547,E,2.01,,030219,,,A*7F
$GPGGA,040800.000,3620.9526,N,13839.3554,E,1,0,,,M,,M,,*76
$GPRMC,040800.000,A,3620.9526,N,13839.3554,E,1.37,,030219,,,A*78
$GPGGA,040801.000,3620.9528,N,13839.3556,E,1,0,,,M,,M,,*7B
$GPRMC,040801.000,A,3620.9528,N,13839.3556,E,0.84,,030219,,,A*7C
$GPGGA,040802.000,3620.9531,N,13839.3553,E,1,0,,,M,,M,,*75
$GPRMC,040802.000,A,3620.9531,N,13839.3553,E,0.45,,030219,,,A*7F
$GPGGA,040803.000,3620.9532,N,13839.3552,E,1,0,,,M,,M,,*76
$GPRMC,040803.000,A,3620.9532,N,13839.3552,E,0.62,,030219,,,A*79
$GPGGA,040804.000,3620.9533,N,13839.3550,E,1,0,,,M,,M,,*72
$GPRMC,040804.000,A,3620.9533,N,13839.3550,E,0.11,,030219,,,A*79
$GPGGA,040805.000,3620.9533,N,13839.3550,E,1,0,,,M,,M,,*73
$GPRMC,040805.000,A,3620.9533,N,13839.3550,E,0.56,,030219,,,A*7B
$GPGGA,040806.000,3620.9534,N,13839.3551,E,1,0,,,M,,M,,*76
$GPRMC,040806.000,A,3620.9534,N,13839.3551,E,0.40,,030219,,,A*79
$GPGGA,040807.000,3620.9535,N,13839.3552,E,1,0,,,M,,M,,*75
$GPRMC,040807.000,A,3620.9535,N,13839.3552,E,0.53,,030219,,,A*78
$GPGGA,040808.000,3620.9535,N,13839.3550,E,1,0,,,M,,M,,*78
$GPRMC,040808.000,A,3620.9535,N,13839.3550,E,0.00,,030219,,,A*73
$GPGGA,040809.000,3620.9535,N,13839.3550,E,1,0,,,M,,M,,*79
$GPRMC,040809.000,A,3620.9535,N,13839.3550,E,0.00,,030219,,,A*72
$GPGGA,040810.000,3620.9536,N,13839.3550,E,1,0,,,M,,M,,*72
$GPRMC,040810.000,A,3620.9536,N,13839.3550,E,0.00,,030219,,,A*79
$GPGGA,040811.000,3620.9536,N,13839.3550,E,1,0,,,M,,M,,*73
$GPRMC,040811.000,A,3620.9536,N,13839.3550,E,0.00,,030219,,,A*78
$GPGGA,040812.000,3620.9536,N,13839.3550,E,1,0,,,M,,M,,*70
$GPRMC,040812.000,A,3620.9536,N,13839.3550,E,0.00,,030219,,,A*7B
$GPGGA,040813.000,3620.9536,N,13839.3550,E,1,0,,,M,,M,,*71
$GPRMC,040813.000,A,3620.9536,N,13839.3550,E,0.00,,030219,,,A*7A
$GPGGA,040814.000,3620.9536,N,13839.3550,E,1,0,,,M,,M,,*76
$GPRMC,040814.000,A,3620.9536,N,13839.3550,E,0.00,,030219,,,A*7D
$GPGGA,040815.000,3620.9536,N,13839.3550,E,1,0,,,M,,M,,*77
$GPRMC,040815.000,A,3620.9536,N,13839.3550,E,0.00,,030219,,,A*7C
$GPGGA,040816.000,3620.9536,N,13839.3550,E,1,0,,,M,,M,,*74
$GPRMC,040816.000,A,3620.9536,N,13839.3550,E,0.00,,030219,,,A*7F
